nome,lat,lon,comune,tipologia,accessibile_disabili,regione,tema_principale
Palazzo Aragona Cutò,38.0890312,13.5078433,Bagheria,Biblioteca,0,Sicilia,Arte antica e medievale
Biblioteca del Senato Giovanni Spadolini - Palazzo della Minerva,41.8983301,12.4775894,Roma,Biblioteca,0,Lazio,Arte antica e medievale
Biblioteca Nazionale Centrale di Roma,41.9059632,12.508327,Roma,Biblioteca,0,Lazio,Cultura e sapere
Biblioteca Civica di Pordenone,45.9586023,12.660506,Pordenone,Biblioteca,0,Friuli-Venezia Giulia,Cultura e sapere
Biblioteca Classense,44.4145337,12.1997372,Ravenna,Biblioteca,0,Emilia-Romagna,Cultura e sapere
Biblioteca Nazionale Universitaria di Torino,45.0683758,7.6870802,Torino,Biblioteca,1,Piemonte,Cultura e sapere
Biblioteca civica Agorà,43.8417034,10.5064358,Lucca,Biblioteca,0,Toscana,Cultura e sapere
Biblioteca civica di Desio,45.6177658,9.2156803,Desio,Biblioteca,0,Lombardia,Cultura e sapere
Palazzo della Cultura,40.9119358,14.7849743,Avellino,Biblioteca,0,Campania,Arte antica e medievale
Bibliotheca Hertziana,41.9054522,12.4842356,Roma,Biblioteca,1,Lazio,Cultura e sapere
Biblioteca di Economia e Giurisprudenza,45.5432097,10.2187527,Brescia,Biblioteca,0,Lombardia,Cultura e sapere
Biblioteca comunale,41.0119509,17.0032353,Rutigliano,Biblioteca,0,Puglia,Cultura e sapere
Landesbibliothek Friedrich Teßmann,46.5031558,11.3430384,Bolzano,Biblioteca,0,Trentino-Alto Adige/Südtirol,Cultura e sapere
Biblioteca Civica Gambalunga,44.0613573,12.5677796,Rimini,Biblioteca,1,Emilia-Romagna,Cultura e sapere
Archivio di Stato,40.8483871,14.2587105,Napoli,Biblioteca,0,Campania,Cultura e sapere
Biblioteca della Ghisa,42.9222588,10.7620489,Follonica,Biblioteca,0,Toscana,Cultura e sapere
Biblioteca Universitaria di Sassari,40.7228021,8.5627834,Sassari,Biblioteca,0,Sardegna,Cultura e sapere
Biblioteca Astense Giorgio Faletti,44.8996811,8.1992997,Asti,Biblioteca,0,Piemonte,Cultura e sapere
Palazzo Comi,39.9335368,18.3200689,Tricase,Biblioteca,0,Puglia,Arte antica e medievale
"Biblioteca comunale ""Bonghi"" - Convento del Ss. Salvatore",41.5137674,15.3302861,Lucera,Biblioteca,0,Puglia,Arte antica e medievale
Piazza delle Culture,41.2684652,15.9090707,Cerignola,Biblioteca,0,Puglia,Cultura e sapere
Palazzo Ducale - Sala Biblioteca,39.3124864,16.8616563,Verzino,Biblioteca,0,Calabria,Arte antica e medievale
Biblioteca Franco Messora,44.9473337,10.8201971,Gonzaga,Biblioteca,0,Lombardia,Cultura e sapere
Biblioteca Scarabelli,37.491968,14.062131,Caltanissetta,Biblioteca,0,Sicilia,Cultura e sapere
"Biblioteca Civica ""Girolamo Tartarotti""",45.8941751,11.0439599,Rovereto,Biblioteca,0,Trentino-Alto Adige/Südtirol,Cultura e sapere
Biblioteca comunale,41.2372702,14.4990917,San Salvatore Telesino,Biblioteca,1,Campania,Cultura e sapere
Archivio di Stato di Mantova,45.1580973,10.7964803,Mantova,Biblioteca,0,Lombardia,Cultura e sapere
Biblioteca Estense Universitaria,44.6480693,10.9209479,Modena,Biblioteca,0,Emilia-Romagna,Cultura e sapere
Ufficio per la Promozione Culturale di Vasto,42.1128514,14.7031319,Vasto,Biblioteca,0,Abruzzo,Cultura e sapere
Biblioteca Comunale,45.6707172,11.9262046,Castelfranco Veneto,Biblioteca,0,Veneto,Cultura e sapere
Biblioteca Comunale Sicilia,45.4650225,9.1521049,Milano,Biblioteca,0,Lombardia,Cultura e sapere
Biblioteca Civica Internazionale Città di Rapallo,44.3459553,9.2388031,Rapallo,Biblioteca,0,Liguria,Cultura e sapere
Biblioteca comunale di Pedavena,46.0385424,11.8823257,Pedavena,Biblioteca,0,Veneto,Cultura e sapere
"Bibioteca Comunale ""Raffaele Liberatore""",42.2245631,14.3963642,Lanciano,Biblioteca,0,Abruzzo,Cultura e sapere
Biblioteca Natalia Ginzburg,44.5793373,11.3577638,Castel Maggiore,Biblioteca,0,Emilia-Romagna,Cultura e sapere
Biblioteca,46.4251454,12.5793552,Forni Di Sopra,Biblioteca,0,Friuli-Venezia Giulia,Cultura e sapere
Biblioteca Parrocchiale,46.5116619,12.9891171,Sutrio,Biblioteca,0,Friuli-Venezia Giulia,Cultura e sapere
Biblioteca Comunale A. Sartori,46.5272576,13.1206281,Paularo,Biblioteca,0,Friuli-Venezia Giulia,Cultura e sapere
Biblioteca comunale,46.3935474,12.6715289,Forni Di Sotto,Biblioteca,0,Friuli-Venezia Giulia,Cultura e sapere
Biblioteca comunale di Trasaghis,46.286521,13.0927089,Trasaghis,Biblioteca,0,Friuli-Venezia Giulia,Cultura e sapere
Library,46.0668319,12.578567,Aviano,Biblioteca,0,Friuli-Venezia Giulia,Cultura e sapere
Biblioteca Civica,46.0113659,12.6208831,Roveredo In Piano,Biblioteca,0,Friuli-Venezia Giulia,Cultura e sapere
Biblioteca comunale,46.1635371,12.8905293,Sequals,Biblioteca,0,Friuli-Venezia Giulia,Cultura e sapere
Biblioteca comunale,46.1958157,12.870464,Travesio,Biblioteca,0,Friuli-Venezia Giulia,Cultura e sapere
"Biblioteca Civica ""Bernardino Partenio""",46.1107133,12.9030885,Spilimbergo,Biblioteca,0,Friuli-Venezia Giulia,Cultura e sapere
Biblioteca Comunale,46.1008173,13.2126562,Tavagnacco,Biblioteca,0,Friuli-Venezia Giulia,Cultura e sapere
Palazzo Bartolini,46.0649843,13.2346266,Udine,Biblioteca,0,Friuli-Venezia Giulia,Arte antica e medievale
Biblioteca civica,45.8901524,12.5950662,Prata Di Pordenone,Biblioteca,1,Friuli-Venezia Giulia,Cultura e sapere
Biblioteca civica don Gilberto Pressacco,45.963526,12.984303,Codroipo,Biblioteca,0,Friuli-Venezia Giulia,Cultura e sapere
Biblioteca civica di Fiume Veneto,45.9287038,12.7339221,Fiume Veneto,Biblioteca,0,Friuli-Venezia Giulia,Cultura e sapere
Biblioteca civica,45.8606186,12.9272744,Morsano Al Tagliamento,Biblioteca,0,Friuli-Venezia Giulia,Cultura e sapere
Biblioteca Civica “Villa Ceschelli”,45.8824924,12.7117239,Azzano Decimo,Biblioteca,0,Friuli-Venezia Giulia,Cultura e sapere
Biblioteca Scolastica Pietro Addobbati,45.6668468,13.764962,Trieste,Biblioteca,0,Friuli-Venezia Giulia,Cultura e sapere
Biblioteca civica e Ostello Comunale,46.1992875,12.9023007,Castelnovo Del Friuli,Biblioteca,0,Friuli-Venezia Giulia,Cultura e sapere
Biblioteca Comunale di Lignano Sabbiadoro,45.6892364,13.1395516,Lignano Sabbiadoro,Biblioteca,1,Friuli-Venezia Giulia,Cultura e sapere
Biblioteca comunale di Precenicco,45.7874002,13.0772491,Precenicco,Biblioteca,0,Friuli-Venezia Giulia,Cultura e sapere
Biblioteca di Cucciago,45.7405806,9.0938079,Cucciago,Biblioteca,0,Lombardia,Cultura e sapere
Biblioteca Comunale,43.6292141,13.3969926,Falconara Marittima,Biblioteca,0,Marche,Cultura e sapere
Mediateca di Santa Teresa,45.4769447,9.1899024,Milano,Biblioteca,1,Lombardia,Cultura e sapere
Biblioteca comprensoriale di Morgex,45.7584037,7.0371863,Morgex,Biblioteca,0,Valle d'Aosta/Vallée d'Aoste,Cultura e sapere
Biblioteca Civica Francesco Gallino,44.410282,8.894182,Genova,Biblioteca,0,Liguria,Cultura e sapere
Biblioteca Salvatore Quasimodo,37.5013563,14.7976622,Paternò,Biblioteca,1,Sicilia,Cultura e sapere
Biblioteca Comunale,45.3977622,8.9792213,Vermezzo Con Zelo,Biblioteca,0,Lombardia,Cultura e sapere
Biblioteca Università Bocconi,45.4485734,9.1886397,Milano,Biblioteca,0,Lombardia,Cultura e sapere
"Biblioteca Labronica ""F.D. Guerrazzi""",43.5365633,10.3168961,Livorno,Biblioteca,0,Toscana,Cultura e sapere
Biblioteca Queriniana,45.5381761,10.2230508,Brescia,Biblioteca,1,Lombardia,Cultura e sapere
Biblioteca Provinciale,41.4563859,15.5600207,Foggia,Biblioteca,0,Puglia,Cultura e sapere
Biblioteca di Valdisotto,46.4253235,10.3542957,Valdisotto,Biblioteca,0,Lombardia,Cultura e sapere
Biblioteca Comunale Italo Calvino,42.7638232,10.8823856,Castiglione Della Pescaia,Biblioteca,0,Toscana,Cultura e sapere
Biblioteca Civica Mario Pistono,45.3687973,8.171221,Santhià,Biblioteca,0,Piemonte,Cultura e sapere
Palestra Biblioteca C.S.E.,46.5439049,10.1411092,Livigno,Biblioteca,0,Lombardia,Cultura e sapere
Biblioteca Comunale,45.6995503,9.080541,Cermenate,Biblioteca,0,Lombardia,Cultura e sapere
Biblioteca Comunale,44.8999521,11.6080658,Occhiobello,Biblioteca,0,Veneto,Cultura e sapere
Biblioteca Petosino,45.733097,9.6362245,Sorisole,Biblioteca,0,Lombardia,Cultura e sapere
Biblioteca Comunale,44.5470912,11.1930523,Anzola Dell'Emilia,Biblioteca,0,Emilia-Romagna,Cultura e sapere
Öffentliche Bibliothek Natz,46.7527241,11.6810402,Naz-Sciaves,Biblioteca,0,Trentino-Alto Adige/Südtirol,Cultura e sapere
Biblioteca Comunale,42.6746674,14.0152218,Roseto Degli Abruzzi,Biblioteca,0,Abruzzo,Cultura e sapere
Centro Socio Culturale Celadina,45.6911619,9.7101739,Bergamo,Biblioteca,0,Lombardia,Cultura e sapere
Archivio di Stato di Firenze,43.7690816,11.2705098,Firenze,Biblioteca,0,Toscana,Cultura e sapere
Biblioteca dei Ragazzi,46.0708997,11.1210704,Trento,Biblioteca,1,Trentino-Alto Adige/Südtirol,Cultura e sapere
Biblioteca Comunale Vittoria Colonna,41.7708047,12.6658552,Marino,Biblioteca,0,Lazio,Cultura e sapere
Biblioteca comunale,45.9136178,8.737874,Duno,Biblioteca,0,Lombardia,Cultura e sapere
Biblioteca comunale Aldo Moro,40.7409641,14.6736133,Nocera Superiore,Biblioteca,0,Campania,Cultura e sapere
"Biblioteca comunale ""Abate Ferrara""",37.616027,15.080844,Trecastagni,Biblioteca,0,Sicilia,Cultura e sapere
Biblioteca di Dro,45.962929,10.9097017,Dro,Biblioteca,0,Trentino-Alto Adige/Südtirol,Cultura e sapere
Biblioteca di Ingegneria,42.3368886,13.3770118,L'Aquila,Biblioteca,0,Abruzzo,Cultura e sapere
Biblioteca comunale,45.8083067,9.0815335,Como,Biblioteca,1,Lombardia,Cultura e sapere
Biblioteca Comunale,41.531847,12.9461212,Latina,Biblioteca,0,Lazio,Cultura e sapere
Biblioteca Tullio De Mauro,41.8991973,12.514211,Roma,Biblioteca,0,Lazio,Cultura e sapere
Biblioteca di Scienze sociali dell'Università degli studi di Firenze,43.792281,11.2304991,Firenze,Biblioteca,1,Toscana,Cultura e sapere
Biblioteca del Dipartimento di Studi Umanistici,45.3271034,8.4213866,Vercelli,Biblioteca,1,Piemonte,Cultura e sapere
"Biblioteca ""Lanfranco da Treviolo""",45.6688664,9.6140651,Treviolo,Biblioteca,0,Lombardia,Cultura e sapere
Biblioteca Comunale,45.9676219,8.4169828,Ornavasso,Biblioteca,0,Piemonte,Cultura e sapere
Biblioteca Biomedica,43.8047168,11.2459596,Firenze,Biblioteca,1,Toscana,Cultura e sapere
Biblioteca Comunale di Rezzato,45.5118229,10.3214131,Rezzato,Biblioteca,0,Lombardia,Cultura e sapere
Biblioteca Alda Rocci Martin,45.1351215,7.2945749,Condove,Biblioteca,0,Piemonte,Cultura e sapere
Öffentliche Bibliothek Schabs,46.7696929,11.6656519,Naz-Sciaves,Biblioteca,0,Trentino-Alto Adige/Südtirol,Cultura e sapere
Biblioteca Valle di Cavedine,45.993933,10.9715546,Cavedine,Biblioteca,0,Trentino-Alto Adige/Südtirol,Cultura e sapere
Biblioteca Tione di Trento,46.0333761,10.7249495,Tione Di Trento,Biblioteca,0,Trentino-Alto Adige/Südtirol,Cultura e sapere
Biblioteca di Pinzolo,46.1559996,10.7671324,Giustino,Biblioteca,0,Trentino-Alto Adige/Südtirol,Cultura e sapere
Biblioteca della Fondazione - Museo Storico del Trentino,46.0722753,11.126935,Trento,Biblioteca,0,Trentino-Alto Adige/Südtirol,Arte moderna e contemporanea
Biblioteca Provinciale,40.6852464,14.7681225,Salerno,Biblioteca,0,Campania,Cultura e sapere
Biblioteca Comunale Crescenzago,45.500269,9.2401639,Milano,Biblioteca,1,Lombardia,Cultura e sapere
"Biblioteca Civica ""V. Joppi"" sez. Moderna",46.0652773,13.2345989,Udine,Biblioteca,0,Friuli-Venezia Giulia,Cultura e sapere
Dante,45.042592,9.689323,Piacenza,Biblioteca,0,Emilia-Romagna,Cultura e sapere
Biblioteca Nazionale Centrale di Firenze,43.7671704,11.2622028,Firenze,Biblioteca,0,Toscana,Cultura e sapere
Biblioteca di Concesio,45.6044113,10.2219171,Concesio,Biblioteca,0,Lombardia,Cultura e sapere
Biblioteca San Giorgio,43.9280428,10.9100642,Pistoia,Biblioteca,0,Toscana,Cultura e sapere
Biblioteca Comunale Forteguerriana,43.9347938,10.9162059,Pistoia,Biblioteca,0,Toscana,Cultura e sapere
"Biblioteca Comunale ""Maria Goia""",44.2606933,12.3512799,Cervia,Biblioteca,0,Emilia-Romagna,Cultura e sapere
Biblioteca di Viale Europa,45.7340457,7.297109,Aosta,Biblioteca,0,Valle d'Aosta/Vallée d'Aoste,Cultura e sapere
Biblioteche riunite Civica e Antonio Ursino Recupero,37.5049071,15.079398,Catania,Biblioteca,0,Sicilia,Cultura e sapere
Biblioteca di Scienze Letterarie e Filologiche,45.0685678,7.7008104,Torino,Biblioteca,1,Piemonte,Cultura e sapere
Biblioteca di Porlezza,46.0374261,9.1199761,Porlezza,Biblioteca,0,Lombardia,Cultura e sapere
Biblioteca Civica di Gallio,45.8919417,11.5493625,Gallio,Biblioteca,0,Veneto,Cultura e sapere
Öffentliche Bibliothek St. Martin in Passeier,46.7831642,11.2273998,San Martino In Passiria,Biblioteca,0,Trentino-Alto Adige/Südtirol,Cultura e sapere
Biblioteca Mario Rigoni Stern,45.7486946,12.3190666,Maserada Sul Piave,Biblioteca,0,Veneto,Cultura e sapere
Biblioteca di Cerea,45.1952233,11.2131749,Cerea,Biblioteca,0,Veneto,Cultura e sapere
Biblioteca Comunale Auris,44.4803923,11.0058147,Vignola,Biblioteca,0,Emilia-Romagna,Cultura e sapere
Biblioteca Fardelliana,38.0141932,12.5105654,Trapani,Biblioteca,0,Sicilia,Cultura e sapere
Biblioteca civica,45.2584995,11.1165811,Bovolone,Biblioteca,0,Veneto,Cultura e sapere
Biblioteca Civica Cascina Marchesa,45.0977203,7.6901138,Torino,Biblioteca,0,Piemonte,Cultura e sapere
"Biblioteca Civica ""Federico Talami""",45.3616831,11.7892826,Abano Terme,Biblioteca,0,Veneto,Cultura e sapere
Biblioteca Metropolitana dei libri editi fuori commercio e Pinacoteca degli autoritratti e dei ritratti Nunzio Sciavarrello,37.5057153,15.0874861,Catania,Biblioteca,0,Sicilia,Arte antica e medievale
Biblioteca di comunità,42.1186405,15.4938505,Isole Tremiti,Biblioteca,0,Puglia,Cultura e sapere
Emeroteca S. Croce - S. Osvaldo,45.3892567,11.8797436,Padova,Biblioteca,0,Veneto,Cultura e sapere
Biblioteca di Quartiere,45.4084754,11.8440264,Padova,Biblioteca,0,Veneto,Cultura e sapere
Biblioteca dello Sport,45.4128728,11.8784963,Padova,Biblioteca,0,Veneto,Cultura e sapere
Bibloteca di Scanzorosciate,45.7107251,9.7392277,Scanzorosciate,Biblioteca,0,Lombardia,Cultura e sapere
Biblioteca Franzoniana,44.4032317,8.9327238,Genova,Biblioteca,0,Liguria,Cultura e sapere
Biblioteca Villa Bandini,43.7559119,11.2898335,Firenze,Biblioteca,0,Toscana,Cultura e sapere
Biblioteca Comunale di Figino Serenza,45.7125036,9.1326567,Figino Serenza,Biblioteca,0,Lombardia,Cultura e sapere
"Biblioteca civica ""Paolo Solimbergo""",45.8759904,13.0345178,Rivignano Teor,Biblioteca,0,Friuli-Venezia Giulia,Cultura e sapere
Biblioteca Regionale De Meis,42.3406906,14.1596494,Chieti,Biblioteca,0,Abruzzo,Cultura e sapere
Biblioteca civica Primo Levi,45.0857929,7.6977819,Torino,Biblioteca,1,Piemonte,Cultura e sapere
Biblioteca Comunale,42.3445419,14.1653203,Chieti,Biblioteca,0,Abruzzo,Cultura e sapere
Biblioteca del Consiglio regionale del Veneto,45.4347409,12.3364273,Venezia,Biblioteca,0,Veneto,Cultura e sapere
Padiglione Centrale,45.4298355,12.358821,Venezia,Biblioteca,1,Veneto,Cultura e sapere
Biblioteca Capitolare,45.4470422,10.9960146,Verona,Biblioteca,1,Veneto,Cultura e sapere
Biblioteca di Città Giardino 'A. Zanzotto',45.6660624,12.2383783,Treviso,Biblioteca,0,Veneto,Cultura e sapere
Biblioteca Egidio Meneghetti,45.4030482,10.9961519,Verona,Biblioteca,0,Veneto,Cultura e sapere
Biblioteca Bertoliana,45.5481939,11.5444839,Vicenza,Biblioteca,0,Veneto,Cultura e sapere
Palazzo Costantini,45.5482038,11.5438281,Vicenza,Biblioteca,0,Veneto,Arte antica e medievale
Biblioteca Civica,45.4411733,10.9994281,Verona,Biblioteca,1,Veneto,Cultura e sapere
Biblioteca comunale di Viggiù,45.8695144,8.9078051,Viggiù,Biblioteca,0,Lombardia,Cultura e sapere
Biblioteca Comunale,45.6771869,12.2151036,Treviso,Biblioteca,0,Veneto,Cultura e sapere
Biblioteca di Riviera Berica,45.5058499,11.5700318,Vicenza,Biblioteca,0,Veneto,Cultura e sapere
Biblioteca di Altavilla Vicentina,45.5083532,11.4679844,Altavilla Vicentina,Biblioteca,0,Veneto,Cultura e sapere
Villa Facchi,45.6949094,9.3081896,Casatenovo,Biblioteca,0,Lombardia,Cultura e sapere
Biblioteca Comunale di Grezzana,45.5225356,11.0216113,Grezzana,Biblioteca,0,Veneto,Cultura e sapere
Biblioteca Comunale,45.7850131,12.000472,Caerano Di San Marco,Biblioteca,0,Veneto,Cultura e sapere
Biblioteca Bruno Bruni,45.5053596,12.2817716,Venezia,Biblioteca,0,Veneto,Cultura e sapere
Palazzo Casale Dolfin,45.7242895,11.7622488,Rosà,Biblioteca,1,Veneto,Arte antica e medievale
Biblioteca del Museo di Storia Naturale del Mediterraneo,43.5358272,10.3139524,Livorno,Biblioteca,0,Toscana,Storia e Memoria
Centro Culturale Giovanni Paolo II,45.7287754,11.914473,Riese Pio X,Biblioteca,1,Veneto,Cultura e sapere
Biblioteca Comunale di Giavera del Montello,45.7948326,12.1692761,Giavera Del Montello,Biblioteca,0,Veneto,Cultura e sapere
Biblioteca Comunale di Dimaro,46.3263407,10.8758412,Dimaro,Biblioteca,0,Trentino-Alto Adige,Cultura e sapere
Biblioteca Casa di Khaoula,44.5201013,11.3475276,Bologna,Biblioteca,1,Emilia-Romagna,Cultura e sapere
Biblioteca Comunale di Feltre - Polo bibliotecario Panfilo Castaldi,46.0190269,11.9114553,Feltre,Biblioteca,0,Veneto,Cultura e sapere
Biblioteca Comunale “Alessandra Lori”,44.5716537,10.9110274,Castelnuovo Rangone,Biblioteca,0,Emilia-Romagna,Cultura e sapere
Biblioteca Luigi Spina,44.5111107,11.3946247,Bologna,Biblioteca,1,Emilia-Romagna,Cultura e sapere
Biblioteca Scandellara - Mirella Bartolotti,44.496846,11.3833264,Bologna,Biblioteca,0,Emilia-Romagna,Cultura e sapere
Centro Culturale Polivalente,44.4419472,11.4755614,Ozzano Dell'Emilia,Biblioteca,0,Emilia-Romagna,Cultura e sapere
Biblioteca Jorge Luis Borges,44.5023823,11.3283363,Bologna,Biblioteca,0,Emilia-Romagna,Cultura e sapere
Biblioteca Civica Luigi Motta,45.471057,10.8497014,Bussolengo,Biblioteca,0,Veneto,Cultura e sapere
Mediateca di San Lazzaro,44.4723574,11.4128078,San Lazzaro Di Savena,Biblioteca,0,Emilia-Romagna,Cultura e sapere
"Biblioteca Comunale ""Casa Bondi""",44.5112601,11.4698406,Castenaso,Biblioteca,0,Emilia-Romagna,Cultura e sapere
Biblioteca Comunale Rinaldo Veronesi,44.5652642,11.2723839,Calderara Di Reno,Biblioteca,0,Emilia-Romagna,Cultura e sapere
Biblioteca comunale Il Torrioncello,44.3900214,11.8266416,Bagnara Di Romagna,Biblioteca,0,Emilia-Romagna,Cultura e sapere
Biblioteca Comunale,42.0211057,12.8072703,Marcellina,Biblioteca,0,Lazio,Cultura e sapere
"Biblioteca Civica ""Cesare Pavese""",45.7347357,9.2730641,Veduggio Con Colzano,Biblioteca,0,Lombardia,Cultura e sapere
Scuole Comunali,44.4907365,11.222687,Zola Predosa,Biblioteca,0,Emilia-Romagna,Cultura e sapere
Biblioteca comunale,45.962531,12.3246464,Vittorio Veneto,Biblioteca,0,Veneto,Cultura e sapere
Biblioteca comunale,44.7144533,11.1507142,Crevalcore,Biblioteca,0,Emilia-Romagna,Cultura e sapere
Biblioteca Comunale,40.7056771,14.7022778,Cava De' Tirreni,Biblioteca,0,Campania,Cultura e sapere
Biblioteca Edmondo De Amicis,44.4069039,8.9521232,Genova,Biblioteca,0,Liguria,Cultura e sapere
Biblioteca comunale di Notaresco,42.6575872,13.8954689,Notaresco,Biblioteca,0,Abruzzo,Cultura e sapere
Biblioteca Comunale di Leno,45.372893,10.2130351,Leno,Biblioteca,1,Lombardia,Cultura e sapere
Biblioteca Peppino Impastato,44.4577163,11.1996627,Monte San Pietro,Biblioteca,0,Emilia-Romagna,Cultura e sapere
Biblioteca Civica Rosanna Benzi,44.4279016,8.7487249,Genova,Biblioteca,0,Liguria,Cultura e sapere
Öffentliche Bibliothek,46.5851695,11.2005346,Gargazon - Gargazzone,Biblioteca,0,Trentino-Alto Adige,Cultura e sapere
Biblioteca Civica - sez. ragazzi Rosalia Aglietta Anderi,45.5639461,8.0509025,Biella,Biblioteca,0,Piemonte,Cultura e sapere
Biblioteca Villa Leopardi,41.9265924,12.5217324,Roma,Biblioteca,0,Lazio,Cultura e sapere
"Biblioteca comunale ""Enrico Peressutti""",46.1809929,12.9451893,Pinzano Al Tagliamento,Biblioteca,0,Friuli-Venezia Giulia,Cultura e sapere
Biblioteca di storia contemporanea Alfredo Oriani,44.4159669,12.2002842,Ravenna,Biblioteca,0,Emilia-Romagna,Cultura e sapere
Biblioteca Comunale Aldo Manuzio,41.4665969,12.9033538,Latina,Biblioteca,1,Lazio,Cultura e sapere
Biblioteca Civica di Ivrea,45.4675848,7.8785442,Ivrea,Biblioteca,0,Piemonte,Cultura e sapere
Biblioteca di Scienze Agrarie e Veterinarie AGROVET,45.0686856,7.5914394,Grugliasco,Biblioteca,0,Piemonte,Cultura e sapere
Biblioteca Sandro Onofri,41.7757033,12.3483231,Roma,Biblioteca,0,Lazio,Cultura e sapere
"Biblioteca comunale ""Lanfranco da Albegno"" di Treviolo",45.6688608,9.6141394,Treviolo,Biblioteca,0,Lombardia,Cultura e sapere
Biblioteca,38.2609533,15.597696,Messina,Biblioteca,0,Sicilia,Cultura e sapere
Tilane Biblioteca,45.5667695,9.159562,Paderno Dugnano,Biblioteca,0,Lombardia,Cultura e sapere
"Biblioteca comunale ""Antonio Gramsci""",42.7495106,13.8887934,Mosciano Sant'Angelo,Biblioteca,0,Abruzzo,Cultura e sapere
Centro multimediale,40.1678639,15.4079271,Laurito,Biblioteca,0,Campania,Cultura e sapere
Biblioteca Regionale,45.735098,7.3151632,Aosta,Biblioteca,0,Valle d'Aosta/Vallée d'Aoste,Cultura e sapere
Centro culturale «Le Creste»,43.3935346,10.4344682,Rosignano Marittimo,Biblioteca,0,Toscana,Cultura e sapere
Palazzo San Domenico,41.0119509,17.0032353,Rutigliano,Biblioteca,0,Puglia,Arte antica e medievale
Biblioteca A. Ruggiero,41.0809656,14.3469016,Caserta,Biblioteca,0,Campania,Cultura e sapere
Biblioteca comunale,45.9841726,13.1971243,Pozzuolo Del Friuli,Biblioteca,0,Friuli-Venezia Giulia,Cultura e sapere
Biblioteca comunale E. Donadoni,45.7153036,9.9598458,Adrara San Rocco,Biblioteca,0,Lombardia,Cultura e sapere
Biblioteca Comunale Lea Garofalo,44.5957077,11.0546586,Castelfranco Emilia,Biblioteca,1,Emilia-Romagna,Cultura e sapere
Biblioteca Multimediale Arturo Loria,44.7834927,10.8867505,Carpi,Biblioteca,0,Emilia-Romagna,Cultura e sapere
"Biblioteca ""Giorgio Bassani""",44.8638898,11.6044454,Ferrara,Biblioteca,0,Emilia-Romagna,Cultura e sapere
Memo,44.646277,10.9165409,Modena,Biblioteca,0,Emilia-Romagna,Cultura e sapere
Biblioteca Scientifica Interdipartimentale,44.6309296,10.9438971,Modena,Biblioteca,1,Emilia-Romagna,Scienze e natura
Biblioteca decentrata Rosta Nuova,44.6863081,10.6386081,Reggio Nell'Emilia,Biblioteca,0,Emilia-Romagna,Cultura e sapere
Biblioteca Comunale “Sincero Bresciani”,44.5102722,10.5005605,Casina,Biblioteca,0,Emilia-Romagna,Cultura e sapere
Biblioteca Salvemini,44.5966152,10.6849903,Scandiano,Biblioteca,0,Emilia-Romagna,Cultura e sapere
Pfarrsaal / Sala Parrocchiale,46.2856221,11.2088502,Magrè Sulla Strada Del Vino,Biblioteca,0,Trentino-Alto Adige/Südtirol,Cultura e sapere
Biblioteca,39.917878,8.6210489,Oristano,Biblioteca,0,Sardegna,Cultura e sapere
Biblioteca comunale Pier Paolo Pasolini,41.7852756,12.440259,Roma,Biblioteca,0,Lazio,Cultura e sapere
"Biblioteca ""Carlo Levi""",44.822183,7.2208055,Torre Pellice,Biblioteca,0,Piemonte,Cultura e sapere
Bibliothek St. Georgen,46.8147862,11.9330972,Brunico,Biblioteca,0,Trentino-Alto Adige/Südtirol,Cultura e sapere
Biblioteca comunale,45.6874922,8.8729839,Cairate,Biblioteca,0,Lombardia,Cultura e sapere
Ex Chiesa di Sant'Antonio Abate - Biblioteca comunale,41.4445149,13.4036935,Vallecorsa,Biblioteca,0,Lazio,Arte antica e medievale
Biblioteca Villa Contarini,41.7226724,12.6036229,Albano Laziale,Biblioteca,0,Lazio,Cultura e sapere
Biblioteca Comunale Pietro Casu,40.7859019,9.164816,Berchidda,Biblioteca,0,Sardegna,Cultura e sapere
Biblioteca Comunale Pietro Mineo,37.6588583,14.5197827,Agira,Biblioteca,0,Sicilia,Cultura e sapere
Biblioteca comunale,45.4535915,12.4552857,Cavallino-Treporti,Biblioteca,0,Veneto,Cultura e sapere
Biblioteca Comunale,43.8422918,10.75096,Ponte Buggianese,Biblioteca,0,Toscana,Cultura e sapere
Biblioteca Comunale,38.3534708,16.0762305,Cittanova,Biblioteca,0,Calabria,Cultura e sapere
Biblioteca di Mariano Comense,45.6976692,9.1782496,Mariano Comense,Biblioteca,0,Lombardia,Cultura e sapere
"Biblioteca Comunale ""Euclide""",37.0716427,14.2364659,Gela,Biblioteca,0,Sicilia,Cultura e sapere
Biblioteca Comunale,44.8901808,10.3554747,Torrile,Biblioteca,0,Emilia-Romagna,Cultura e sapere
Biblioteca di Alice - per Bambini,44.807361,10.3210603,Parma,Biblioteca,0,Emilia-Romagna,Cultura e sapere
Biblioteca Comunale di Roncadelle,45.527097,10.1495615,Roncadelle,Biblioteca,0,Lombardia,Cultura e sapere
Biblioteca Comunale Antonio Renda,38.3526474,16.0110979,Taurianova,Biblioteca,0,Calabria,Cultura e sapere
"Biblioteca di Medicina ""Ottaviani""",44.8021906,10.3096233,Parma,Biblioteca,0,Emilia-Romagna,Cultura e sapere
Centro Sociale - Biblioteca,40.0333988,9.6400846,Triei,Biblioteca,0,Sardegna,Cultura e sapere
BiblioteCaNova Isolotto,43.7802734,11.1960912,Firenze,Biblioteca,0,Toscana,Cultura e sapere
Biblioteca Comunale,41.6290053,13.3305025,Frosinone,Biblioteca,0,Lazio,Cultura e sapere
Biblioteca Unione Media Val Cavallina,45.7164426,9.8818914,Luzzana,Biblioteca,0,Lombardia,Cultura e sapere
La chiameremo Osvaldo,44.9650085,9.8549575,Roveleto,Biblioteca,0,Emilia-Romagna,Cultura e sapere
Biblioteca di Fino Mornasco,45.745266,9.0489331,Fino Mornasco,Biblioteca,0,Lombardia,Cultura e sapere
Biblioteca Comunale di Casale sul Sile,45.5955761,12.3254635,Casale Sul Sile,Biblioteca,0,Veneto,Cultura e sapere
Natura Rerum,44.2285813,12.0537759,Forlì,Biblioteca,0,Emilia-Romagna,Cultura e sapere
Biblioteca Comunale Carlo Magnani,43.9010559,10.6841095,Pescia,Biblioteca,0,Toscana,Cultura e sapere
Biblioteca Salzano,45.5216353,12.1061594,Salzano,Biblioteca,0,Veneto,Cultura e sapere
Biblioteca Tronchin,45.5235232,12.1572612,Martellago,Biblioteca,0,Veneto,Cultura e sapere
Biblioteca comunale di Scorzè,45.5722282,12.106127,Scorzè,Biblioteca,0,Veneto,Cultura e sapere
"Biblioteca Comunale ""Mario Soldati""",44.7432622,11.9393926,Ostellato,Biblioteca,0,Emilia-Romagna,Cultura e sapere
Biblioteca comunale,43.8976699,10.3188253,Massarosa,Biblioteca,0,Toscana,Cultura e sapere
Biblioteca Comunale,43.8965288,10.2958583,Massarosa,Biblioteca,0,Toscana,Cultura e sapere
Biblioteca Comunale di Zelarino,45.5155421,12.2074109,Zelarino,Biblioteca,0,Veneto,Cultura e sapere
Biblioteca Comunale Don Gian Carlo Frassu,40.7204957,9.1029949,Oschiri,Biblioteca,0,Sardegna,Cultura e sapere
Biblioteca Lambrate,45.4796446,9.2374413,Milano,Biblioteca,0,Lombardia,Cultura e sapere
"Biblioteca Civica ""Pietro Zampieri""",45.3850563,12.0079643,Vigonovo,Biblioteca,0,Veneto,Cultura e sapere
Biblioteca Comunale Diego Valeri,45.2955864,12.0335562,Piove Di Sacco,Biblioteca,1,Veneto,Cultura e sapere
Biblioteca Civica Ubaldo Mazzini,44.1075793,9.8141154,La Spezia,Biblioteca,0,Liguria,Cultura e sapere
Biblioteca di Peschiera Borromeo,45.4316173,9.2949809,Peschiera Borromeo,Biblioteca,0,Lombardia,Cultura e sapere
Biblioteca Comunale,45.7061096,12.4886431,Salgareda,Biblioteca,0,Veneto,Cultura e sapere
Biblioteca Comunale,45.5688269,8.8654216,Dairago,Biblioteca,0,Lombardia,Cultura e sapere
Ca' del Meist,45.4329317,7.2331062,Ceresole Reale,Biblioteca,0,Piemonte,Cultura e sapere
Biblioteca civica Camillo Alliaudi,44.8878157,7.3345852,Pinerolo,Biblioteca,0,Piemonte,Cultura e sapere
Biblioteca comunale - Archivio Storico Comunale,39.7247304,8.6352368,Terralba,Biblioteca,0,Sardegna,Cultura e sapere
Biblioteca Civica,45.7750963,12.8350808,Portogruaro,Biblioteca,0,Veneto,Cultura e sapere
Biblioteca,45.7546468,12.8454244,Concordia Sagittaria,Biblioteca,0,Veneto,Cultura e sapere
Biblioteca di Volandia,45.6294162,8.7063195,Vizzola Ticino,Biblioteca,0,Lombardia,Cultura e sapere
Biblioteca Comunale di Follina,45.9535538,12.1165057,Follina,Biblioteca,0,Veneto,Cultura e sapere
Biblioteca Ex macello,45.0238303,12.2166156,Porto Viro,Biblioteca,0,Veneto,Cultura e sapere
Biblioteca civica Camillo Alliaudi. Sezione ragazzi,44.8820035,7.3340996,Pinerolo,Biblioteca,0,Piemonte,Cultura e sapere
Biblioteca Civica,45.3198757,8.8557227,Vigevano,Biblioteca,0,Lombardia,Cultura e sapere
Biblioteca Civica,43.7836884,7.6640979,Bordighera,Biblioteca,0,Liguria,Cultura e sapere
"Biblioteca Comunale ""Paolo Angelani""",42.0509878,12.6148972,Monterotondo,Biblioteca,0,Lazio,Cultura e sapere
Museo Biblioteca Bicknell,43.7819108,7.6680534,Bordighera,Biblioteca,0,Liguria,Cultura e sapere
Biblioteca Diocesana,41.0737741,14.3339188,Caserta,Biblioteca,0,Campania,Cultura e sapere
Biblioteca civica,44.1469029,8.2787834,Pietra Ligure,Biblioteca,0,Liguria,Cultura e sapere
Biblioteca Villa Urbani,43.1043776,12.3822779,Perugia,Biblioteca,0,Umbria,Cultura e sapere
Biblioteca San Lorenzo,44.1819018,8.3993905,Finale Ligure,Biblioteca,0,Liguria,Cultura e sapere
Biblioteca Andrea Aonzo,44.2933216,8.4120061,Quiliano,Biblioteca,0,Liguria,Cultura e sapere
Biblioteca universitaria,44.3003523,8.4504541,Savona,Biblioteca,0,Liguria,Cultura e sapere
Bilblioteca civica Eugenio Montale,44.3603335,8.5786809,Varazze,Biblioteca,1,Liguria,Cultura e sapere
Biblioteca Comunale Giovanni Solinas,39.4167883,8.9258723,Serramanna,Biblioteca,0,Sardegna,Cultura e sapere
Biblioteca Intercomunale,46.3487439,11.0906794,Predaia,Biblioteca,0,Trentino-Alto Adige/Südtirol,Cultura e sapere
La Millenaria,44.3443209,9.1715537,Camogli,Biblioteca,0,Liguria,Cultura e sapere
Sa domu Comunali,39.3022656,9.0914056,Sestu,Biblioteca,0,Sardegna,Cultura e sapere
Biblioteca comunale Dan danino di Sarra,41.349027,13.4295167,Fondi,Biblioteca,0,Lazio,Cultura e sapere
BIblioteca Beghi,44.1127583,9.8452175,La Spezia,Biblioteca,0,Liguria,Cultura e sapere
Biblioteca Comunale,44.1167762,9.909808,Arcola,Biblioteca,0,Liguria,Cultura e sapere
Biblioteca Civica C. Martinetti - Sezione distaccata,44.048931,10.0166697,Sarzana,Biblioteca,0,Liguria,Cultura e sapere
Biblioteca Civica Berio,44.4049623,8.9371255,Genova,Biblioteca,1,Liguria,Cultura e sapere
Biblioteca Nazionale Marciana,45.4334786,12.339234,Venezia,Biblioteca,1,Veneto,Cultura e sapere
"Biblioteca Civica ""F. Camona"" (1904)",45.9275789,8.4324629,Gravellona Toce,Biblioteca,0,Piemonte,Cultura e sapere
Biblioteca pubblica Bellinato - Fioroni,45.1919354,11.3087001,Legnago,Biblioteca,0,Veneto,Cultura e sapere
"Biblioteca ""Luciano Lama""",42.5543946,12.4172575,Amelia,Biblioteca,0,Umbria,Cultura e sapere
Biblioteca Civica Giuseppe De Abate,45.3504165,8.2506775,San Germano Vercellese,Biblioteca,0,Piemonte,Cultura e sapere
Biblioteca comunale Alda Merini,45.6715316,8.7407995,Casorate Sempione,Biblioteca,0,Lombardia,Cultura e sapere
Biblioteca Comunale,41.0631319,16.9207023,Triggiano,Biblioteca,0,Puglia,Cultura e sapere
Biblioteca Montello,45.670857,9.8041742,Montello,Biblioteca,1,Lombardia,Cultura e sapere
Biblioteca Comunale Roberto Sava,37.5916819,14.9779314,Belpasso,Biblioteca,0,Sicilia,Cultura e sapere
Biblioteca dei ragazzi,43.536376,10.3148511,Livorno,Biblioteca,0,Toscana,Cultura e sapere
Biblioteca Giovanni Verga,36.9152944,14.7215917,Ragusa,Biblioteca,0,Sicilia,Cultura e sapere
Biblioteca comunale di Lentiai,46.0456521,12.0189501,Lentiai,Biblioteca,0,Veneto,Cultura e sapere
Biblioteca Luigi Einaudi,44.5313371,7.9438833,Dogliani,Biblioteca,1,Piemonte,Cultura e sapere
Biblioteca Civica Domenico Pittarini,45.6618886,11.6022707,Sandrigo,Biblioteca,0,Veneto,Cultura e sapere
Biblioteca Civica di Bovisio Masciago,45.6099081,9.1449704,Bovisio-Masciago,Biblioteca,0,Lombardia,Cultura e sapere
Biblioteca San Pellegrino - Marco Gerra,44.6828239,10.6165595,Reggio Nell'Emilia,Biblioteca,0,Emilia-Romagna,Cultura e sapere
"Biblioteca civica ""Vincenzo Pappalettera""",45.6300972,9.1465139,Cesano Maderno,Biblioteca,0,Lombardia,Cultura e sapere
Biblioteca comunale Don Lorenzo Milani,44.8092632,10.1838718,Noceto,Biblioteca,0,Emilia-Romagna,Cultura e sapere
Biblioteca Comunale,45.5168522,11.1647441,Tregnago,Biblioteca,0,Veneto,Cultura e sapere
Sala Piero Monaco,45.6140665,8.8515122,Busto Arsizio,Biblioteca,1,Lombardia,Cultura e sapere
Biblioteca comunale,43.9389699,12.7140215,San Giovanni In Marignano,Biblioteca,0,Emilia-Romagna,Cultura e sapere
"Biblioteca comunale ""Alfredo Panzini""",44.1491296,12.4618781,Bellaria-Igea Marina,Biblioteca,1,Emilia-Romagna,Cultura e sapere
Biblioteca capitolare di San Giovanni Battista,45.6123202,8.8527496,Busto Arsizio,Biblioteca,0,Lombardia,Cultura e sapere
"Biblioteca Civica ""G. Lovato"" - Lonigo",45.3891072,11.385885,Lonigo,Biblioteca,0,Veneto,Cultura e sapere
Biblioteca intercomunale Albano Tomaselli,46.0658852,11.522034,Castel Ivano,Biblioteca,0,Trentino-Alto Adige/Südtirol,Cultura e sapere
Biblioteca Civica,43.9492249,8.1413301,Andora,Biblioteca,1,Liguria,Cultura e sapere
Biblioteca Comunale di Botticino Libero Dordoni,45.5397694,10.3027294,Botticino,Biblioteca,1,Lombardia,Cultura e sapere
Biblioteca di Scienze Archeologiche e Storiche dell'Antichità - Università di Macerata,43.3009523,13.4430533,Macerata,Biblioteca,0,Marche,Archeologia
Bibliothek Schlandersburg - Biblioteca Castello di Silandro,46.6300652,10.7735098,Silandro,Biblioteca,0,Trentino-Alto Adige/Südtirol,Arte antica e medievale
Biblioteca Don Giovanni Cosseddu,40.3855423,9.6114684,Galtellì,Biblioteca,0,Sardegna,Cultura e sapere
Biblioteca e Pinacoteca Zelantea,37.6140286,15.1627806,Acireale,Biblioteca,0,Sicilia,Arte antica e medievale
Biblioteca comunale,40.8838085,16.9475499,Sammichele Di Bari,Biblioteca,1,Puglia,Cultura e sapere
Biblioteca Comunale La Fonte,45.5002704,9.3804922,Vignate,Biblioteca,1,Lombardia,Cultura e sapere
Biblioteca Comunale Castello d'Argile,44.6827253,11.2968018,Castello D'Argile,Biblioteca,1,Emilia-Romagna,Arte antica e medievale
Piccola Biblioteca del Bosco,45.9523363,10.1309127,Borno,Biblioteca,0,Lombardia,Cultura e sapere
Biblioteca di Monte Isola,45.7146091,10.0963187,Monte Isola,Biblioteca,0,Lombardia,Cultura e sapere
Biblioteca Comunale,45.5071047,11.4059001,Montecchio Maggiore,Biblioteca,0,Veneto,Cultura e sapere
Biblioteca di Albano Laziale - Sede centrale,41.7266705,12.6617623,Albano Laziale,Biblioteca,0,Lazio,Cultura e sapere
"Biblioteca ""Antonio Pennacchi""",41.5148371,12.8554199,Latina,Biblioteca,0,Lazio,Cultura e sapere
Biblioteca Universitaria Centrale Alcide De Gasperi,46.0594197,11.1155043,Trento,Biblioteca,1,Trentino-Alto Adige/Südtirol,Cultura e sapere
Biblioteca Comunale di Bauladu,40.0206064,8.6728547,Bauladu,Biblioteca,0,Sardegna,Cultura e sapere
Casa di Pia,41.8077034,12.6834678,Frascati,Biblioteca,0,Lazio,Cultura e sapere
Biblioteca Sandro Penna,43.0851065,12.3459725,Perugia,Biblioteca,0,Umbria,Cultura e sapere
Biblioteca Popolare di Torriglia,44.519812,9.160815,Torriglia,Biblioteca,0,Liguria,Cultura e sapere
Biblioteca Comunale,41.4143388,13.2399563,Sonnino,Biblioteca,0,Lazio,Cultura e sapere
Biblioteca comunale di Cisano Bergamsco,45.7387274,9.4776943,Cisano Bergamasco,Biblioteca,0,Lombardia,Cultura e sapere
"Civica biblioteca ""Tomaso e Angiolina Battaglia""",44.5890811,8.4590802,Ponzone,Biblioteca,0,Piemonte,Cultura e sapere
Biblioteca civica Luigi Majno - Sezione ragazzi e famiglia,45.6574786,8.7973048,Gallarate,Biblioteca,1,Lombardia,Cultura e sapere
Biblioteca Comunale,40.5828822,15.6790234,Tito,Biblioteca,0,Basilicata,Cultura e sapere
Biblioteca Comunale di Tuenno,46.3255948,11.0223855,Tuenno,Biblioteca,0,Trentino-Alto Adige,Cultura e sapere
Biblioteca civica Centrale,45.0746102,7.6735741,Torino,Biblioteca,0,Piemonte,Cultura e sapere
Biblioteca civica Dietrich Bonhoeffer,45.0276463,7.6504411,Torino,Biblioteca,1,Piemonte,Cultura e sapere
Mausoleo della Bela Rosin,45.0098694,7.6388499,Torino,Biblioteca,0,Piemonte,Cultura e sapere
Biblioteca Civica Francesco Cognasso,45.0983296,7.6391353,Torino,Biblioteca,0,Piemonte,Cultura e sapere
Biblioteca Civica di Lugo,45.7524449,11.5232595,Lugo Di Vicenza,Biblioteca,0,Veneto,Cultura e sapere
Biblioteca Guglielmo Marconi,41.8622325,12.4652255,Roma,Biblioteca,0,Lazio,Cultura e sapere
Biblioteca Civica,45.7370342,11.3903747,Santorso,Biblioteca,0,Veneto,Cultura e sapere
Biblioteca Zugliano,45.734503,11.5209827,Zugliano,Biblioteca,1,Veneto,Cultura e sapere
Centro Civico Piersanti Mattarella,42.2564992,12.1690543,Capranica,Biblioteca,1,Lazio,Cultura e sapere
Biblioteca Comunale Calvairate,45.4555167,9.2206076,Milano,Biblioteca,1,Lombardia,Cultura e sapere
Biblioteca Comunale O. Gasperini,46.0152762,11.634604,Grigno,Biblioteca,1,Trentino-Alto Adige/Südtirol,Cultura e sapere
Biblioteca Comunale,44.3546842,11.7112809,Imola,Biblioteca,1,Emilia-Romagna,Cultura e sapere
Biblioteca Comunale Peppe Senes,40.4634659,9.1919665,Nule,Biblioteca,0,Sardegna,Cultura e sapere
Biblioteca di Donnas,45.603286,7.766694,Donnas,Biblioteca,0,Valle d'Aosta/Vallée d'Aoste,Cultura e sapere
"Biblioteca dei Ragazzi ""Virgilio Canzi""",45.5370196,9.2308804,Sesto San Giovanni,Biblioteca,1,Lombardia,Cultura e sapere
Biblioteca di Solarussa,39.9540042,8.6696452,Solarussa,Biblioteca,0,Sardegna,Cultura e sapere
Biblioteca comunale Predi Antiogu,39.7010242,8.7842645,Masuddas/Masullas,Biblioteca,0,Sardegna,Cultura e sapere
Biblioteca Provinciale Antonio Mellusi,41.1304447,14.7797805,Benevento,Biblioteca,0,Campania,Cultura e sapere
Biblioteca Nazionale Vittorio Emanuele III,40.8369281,14.2510108,Napoli,Biblioteca,0,Campania,Cultura e sapere
Officine Cantelmo,40.3572956,18.172982,Lecce,Biblioteca,0,Puglia,Cultura e sapere
Biblioteca Comunale di Grumello del Monte,45.6368363,9.8718337,Grumello Del Monte,Biblioteca,0,Lombardia,Cultura e sapere
Biblioteca comunale di Cislago,45.6567676,8.9716461,Cislago,Biblioteca,0,Lombardia,Cultura e sapere
Biblioteca Comunale,45.6007857,11.6225939,Bolzano Vicentino,Biblioteca,0,Veneto,Cultura e sapere
Biblioteca Biblionet,43.087383,12.4364428,Perugia,Biblioteca,0,Umbria,Cultura e sapere
Biblioteca Comunale Villa di Serio,45.721389,9.7350992,Villa Di Serio,Biblioteca,0,Lombardia,Cultura e sapere
SMS Biblio,43.7062174,10.4181023,Pisa,Biblioteca,1,Toscana,Cultura e sapere
Biblioteca Comunale Niguarda,45.5152399,9.1930974,Milano,Biblioteca,1,Lombardia,Cultura e sapere
Biblioteca Comunale Zara,45.4972154,9.1960641,Milano,Biblioteca,1,Lombardia,Cultura e sapere
Biblioteca Comunale di Sinalunga,43.2134459,11.7340282,Sinalunga,Biblioteca,0,Toscana,Cultura e sapere
"Biblioteca Civica ""Villa Valle""",45.643381,11.2996694,Valdagno,Biblioteca,0,Veneto,Cultura e sapere
Biblioteca Comunale,45.6433373,11.299428,Valdagno,Biblioteca,0,Veneto,Cultura e sapere
Biblioteca Malatestiana,44.1388386,12.243707,Cesena,Biblioteca,0,Emilia-Romagna,Cultura e sapere
"Biblioteca comunale ""Angelo Casati""",45.7303719,9.222381,Inverigo,Biblioteca,0,Lombardia,Cultura e sapere
Biblioteca comunale di Sovico,45.6500193,9.2647721,Sovico,Biblioteca,0,Lombardia,Cultura e sapere
Academia de España,41.8889521,12.4657831,Roma,Biblioteca,0,Lazio,Cultura e sapere
Accademia dei Concordi,45.070927,11.7903578,Rovigo,Biblioteca,1,Veneto,Cultura e sapere
Biblioteca Largo Torrelunga,45.5355329,10.2315332,Brescia,Biblioteca,1,Lombardia,Cultura e sapere
Istituto Pietro Pasquali - Rosa Agazzi,45.5679735,10.2404617,Brescia,Biblioteca,0,Lombardia,Cultura e sapere
Biblioteca Ariostea,44.8326967,11.621702,Ferrara,Biblioteca,0,Emilia-Romagna,Cultura e sapere
Biblioteca Civica Quattromiglia,39.3543375,16.2425776,Quattromiglia,Biblioteca,0,Calabria,Cultura e sapere
"Biblioteca civica ""Nanni Valentini""",45.6256749,9.3227857,Arcore,Biblioteca,0,Lombardia,Cultura e sapere
Biblioteca Civica Popolare,45.6518315,9.3629997,Usmate Velate,Biblioteca,0,Lombardia,Cultura e sapere
Biblioteca comunale di Castelleone di Suasa,43.6074842,12.9762863,Castelleone Di Suasa,Biblioteca,0,Marche,Cultura e sapere
Biblioteca Provinciale Pasquale Albino,41.5619227,14.6621863,Campobasso,Biblioteca,0,Molise,Cultura e sapere
Biblioteca Lercari,44.4083489,8.9615294,Genova,Biblioteca,0,Liguria,Cultura e sapere
Centro Civico e Biblioteca comunale,45.7966171,9.1643047,Albese Con Cassano,Biblioteca,0,Lombardia,Cultura e sapere
Casa Aragonese,40.0806309,8.6106357,Seneghe,Biblioteca,1,Sardegna,Cultura e sapere
Centro culturale polifunzionale Antonio Librizzi,38.1622605,14.7450458,Capo D'Orlando,Biblioteca,0,Sicilia,Cultura e sapere
"Università ""Federico II"" - BRAU",40.8505299,14.2525125,Napoli,Biblioteca,0,Campania,Cultura e sapere
Libreria Tre Pini,45.914881,11.1742446,Folgaria,Biblioteca,0,Trentino-Alto Adige/Südtirol,Cultura e sapere
Biblioteca Civica Francesco Domenico Guerrazzi,44.4166345,8.8724654,Genova,Biblioteca,0,Liguria,Cultura e sapere
Biblioteca,45.0453756,7.3525658,Giaveno,Biblioteca,0,Piemonte,Cultura e sapere
Biblioteca,40.6322374,17.9390881,Brindisi,Biblioteca,0,Puglia,Cultura e sapere
Biblioteca comunale Prato Nord Peppino Impastato,43.8930545,11.0905158,Prato,Biblioteca,0,Toscana,Cultura e sapere
BUP - Biblioteca Universitaria Povo,46.0671841,11.1502325,Povo,Biblioteca,0,Trentino-Alto Adige,Cultura e sapere
Biblioteca di Casazza,45.5736729,10.2276483,Brescia,Biblioteca,0,Lombardia,Cultura e sapere
Biblioteca Calabrese,38.5969425,16.2306187,Sorianello,Biblioteca,0,Calabria,Cultura e sapere
Biblioteca Civica Angelino Usai,39.8780589,9.5414786,Lanusei,Biblioteca,0,Sardegna,Cultura e sapere
Biblioteca Comunale Paolo Dettori,40.8759246,9.6281829,Loiri Porto San Paolo,Biblioteca,0,Sardegna,Cultura e sapere
Biblioteca Comunale Is Bingias,39.245018,9.1331552,Cagliari,Biblioteca,0,Sardegna,Cultura e sapere
Mediateca del Mediterraneo,39.2215504,9.1046151,Cagliari,Biblioteca,1,Sardegna,Cultura e sapere
Biblioteca Metropolitana Ragazzi,39.2345139,9.1189822,Cagliari,Biblioteca,0,Sardegna,Cultura e sapere
Biblioteca comunale,44.9836816,7.3732133,Cumiana,Biblioteca,0,Piemonte,Cultura e sapere
Biblioteca (ex Artiglieria),41.2146843,9.4075904,La Maddalena,Biblioteca,0,Sardegna,Cultura e sapere
Biblioteca Sebastiano Satta - Sezione Sardegna,40.3218701,9.3372298,Nuoro,Biblioteca,1,Sardegna,Cultura e sapere
Biblioteca Sebastiano Satta - Sede Centrale,40.3212712,9.3376871,Nuoro,Biblioteca,1,Sardegna,Cultura e sapere
Biblioteca di Selargius sede decentrata di Su Planu,39.2557389,9.1071299,Selargius,Biblioteca,0,Sardegna,Cultura e sapere
Enrico Minio,42.2883866,12.413879,Civita Castellana,Biblioteca,0,Lazio,Cultura e sapere
Palazzo Amaduri,38.3383597,16.3047816,Gioiosa Ionica,Biblioteca,0,Calabria,Arte antica e medievale
Biblioteca Comunale Adolfo Betti,44.0093873,10.5894243,Bagni Di Lucca,Biblioteca,0,Toscana,Cultura e sapere
Biblioteca e ludoteca,39.9418137,8.6032407,Oristano,Biblioteca,0,Sardegna,Cultura e sapere
Biblioteca Sede Decentrata di Donigala Fenughedu,39.9366478,8.5740317,Oristano,Biblioteca,0,Sardegna,Cultura e sapere
Biblioteca Comunale Sede decentrata di Torregrande,39.9074315,8.5169758,Oristano,Biblioteca,0,Sardegna,Cultura e sapere
Biblioteca Civica A. Dalla Pozza,45.6519519,11.4932193,Villaverla,Biblioteca,0,Veneto,Cultura e sapere
Biblioteca Comunale Roviano,42.0261536,12.9946958,Roviano,Biblioteca,0,Lazio,Cultura e sapere
Biblioteca Comunale Grazia Deledda,41.2383069,9.1919664,Santa Teresa Gallura,Biblioteca,0,Sardegna,Cultura e sapere
Biblioteca Comunale,46.1388849,12.2175175,Belluno,Biblioteca,0,Veneto,Cultura e sapere
Biblioteca di Elmas,39.266841,9.0509667,Elmas,Biblioteca,0,Sardegna,Cultura e sapere
Biblioteca Grazia Deledda,40.5756296,9.6942392,Siniscola,Biblioteca,0,Sardegna,Cultura e sapere
Centro Polivalente e biblioteca comunale,39.6832708,8.6467477,San Nicolò D'Arcidano,Biblioteca,0,Sardegna,Cultura e sapere
Biblioteca Comunale,41.821394,12.8018021,San Cesareo,Biblioteca,0,Lazio,Cultura e sapere
"Biblioteca Comunale ""Pietro Doneddu""",39.1636663,8.5260258,Carbonia,Biblioteca,1,Sardegna,Cultura e sapere
Biblioteca Comunale Niccolò Cannelles,39.3120327,8.5354942,Iglesias,Biblioteca,0,Sardegna,Cultura e sapere
Biblioteca Comunale di Crema,45.3639653,9.6895476,Crema,Biblioteca,1,Lombardia,Cultura e sapere
"Biblioteca ""Barbara Allason""",45.0170148,7.7495403,Pecetto Torinese,Biblioteca,0,Piemonte,Cultura e sapere
Biblioteca Civica di Abbadia Lariana,45.8999982,9.3323589,Abbadia Lariana,Biblioteca,0,Lombardia,Cultura e sapere
Biblioteca dell'Accademia di Belle Arti Pietro Vannucci,43.1137527,12.3822252,Perugia,Biblioteca,0,Umbria,Cultura e sapere
Biblioteca San Matteo degli Armeni,43.1200452,12.3832891,Perugia,Biblioteca,0,Umbria,Cultura e sapere
Deutsche Bibliothek Leifers,46.4251059,11.3398837,Laives - Leifers,Biblioteca,0,Trentino-Alto Adige,Cultura e sapere
Biblioteca comunale G. Abbiati,45.8419891,8.7177198,Gavirate,Biblioteca,0,Lombardia,Cultura e sapere
Biblioteca Comunale Harar,45.474031,9.1195242,Milano,Biblioteca,0,Lombardia,Cultura e sapere
Biblioteca Comunale Marcello Marchesi,39.7210726,8.9402051,Setzu,Biblioteca,0,Sardegna,Cultura e sapere
Biblioteca Argentario,46.0769744,11.141749,Cognola,Biblioteca,0,Trentino-Alto Adige,Cultura e sapere
"Biblioteca comunale ""Alda Merini""",45.0770527,7.5170984,Rivoli,Biblioteca,0,Piemonte,Cultura e sapere
Biblioteca comunale,38.1145731,15.6523378,Reggio Di Calabria,Biblioteca,0,Calabria,Cultura e sapere
Biblioteca comunale,45.8019735,9.4307752,Calolziocorte,Biblioteca,0,Lombardia,Cultura e sapere
Biblioteca comunale di Roverbella,45.2662841,10.7672193,Roverbella,Biblioteca,0,Lombardia,Cultura e sapere
Centro documentazione e biblioteca pedagogica,45.0744596,7.6266472,Torino,Biblioteca,0,Piemonte,Cultura e sapere
Biblioteca,40.1739994,8.8572935,Aidumajore/Aidomaggiore,Biblioteca,0,Sardegna,Cultura e sapere
Biblioteca Comunale Piero Soggiu,40.1351603,8.8355138,Norbello,Biblioteca,0,Sardegna,Cultura e sapere
Biblioteca Comunale Edmondo De Amicis,39.7934055,9.0035954,Genoni,Biblioteca,0,Sardegna,Cultura e sapere
Biblioteca Comunale,39.6995125,8.8371682,Gonnoscodina,Biblioteca,0,Sardegna,Cultura e sapere
Biblioteca Comunale di Curcuris,39.7464675,8.8302696,Curcuris,Biblioteca,0,Sardegna,Cultura e sapere
Villa Rapelli,45.0989708,7.5459316,Pianezza,Biblioteca,0,Piemonte,Cultura e sapere
Biblioteca Comunale di Samassi,39.4800583,8.9073775,Samassi,Biblioteca,0,Sardegna,Cultura e sapere
"Biblioteca Civica ""Aldo Moro""",45.6041993,9.300865,Villasanta,Biblioteca,1,Lombardia,Cultura e sapere
Biblioteca di Decimomannu,39.3072791,8.9666652,Decimomannu,Biblioteca,0,Sardegna,Cultura e sapere
Biblioteca Comunale di Uta,39.2933913,8.9585824,Uta,Biblioteca,0,Sardegna,Cultura e sapere
Biblioteca Comunale Agostino Saba,39.3743142,9.1560368,Serdiana,Biblioteca,0,Sardegna,Cultura e sapere
Biblioteca Comunale di Villasalto,39.4936912,9.3904755,Villasalto,Biblioteca,0,Sardegna,Cultura e sapere
Biblioteca Comunale di Guasila,39.5610086,9.0434876,Guasila,Biblioteca,0,Sardegna,Cultura e sapere
"Biblioteca ""Giulio Cesare Croce""",44.6373338,11.1883573,San Giovanni In Persiceto,Biblioteca,0,Emilia-Romagna,Cultura e sapere
Villa del Sole - Biblioteca comunale di Seveso,45.6435786,9.1358762,Seveso,Biblioteca,0,Lombardia,Cultura e sapere
Biblioteca,39.8780965,8.6123227,Santa Giusta,Biblioteca,0,Sardegna,Cultura e sapere
Biblioteca Comunale di Borore,40.2125786,8.8037531,Borore,Biblioteca,0,Sardegna,Cultura e sapere
Biblioteca Comunale Gino Rizzo,40.3057704,18.2039181,Cavallino,Biblioteca,0,Puglia,Cultura e sapere
Biblioteca e Mediateca Comunale,40.0018255,8.6476015,Tramatza,Biblioteca,0,Sardegna,Cultura e sapere
Biblioteca comunale,39.9687974,9.6569257,Lotzorai,Biblioteca,0,Sardegna,Cultura e sapere
Biblioteca comunale,45.4092141,11.589427,Barbarano Mossano,Biblioteca,0,Veneto,Cultura e sapere
Biblioteca Giordano Bruno,41.9110737,12.4519574,Roma,Biblioteca,0,Lazio,Cultura e sapere
Biblioteca Comunale Sebastiano Satta,39.9901816,8.5977746,Zeddiani,Biblioteca,0,Sardegna,Cultura e sapere
Biblioteca civica Ezio Vanoni,46.1317397,9.567602,Morbegno,Biblioteca,1,Lombardia,Cultura e sapere
Biblioteca Comunale,45.8324676,12.0079876,Cornuda,Biblioteca,0,Veneto,Cultura e sapere
Biblioteca Comunale di Bessude,40.555695,8.7272624,Bessude,Biblioteca,0,Sardegna,Cultura e sapere
Biblioteca comunale,40.4158582,9.031353,Bono,Biblioteca,0,Sardegna,Cultura e sapere
Biblioteca Comunale di San Michele all'Adige,46.1923593,11.1339873,San Michele All'Adige,Biblioteca,1,Trentino-Alto Adige/Südtirol,Cultura e sapere
Biblioteca Comunale di Martis,40.776982,8.811356,Martis,Biblioteca,0,Sardegna,Cultura e sapere
"Biblioteca comunale ""Giampiero Mari""",45.6649207,8.8910318,Gorla Maggiore,Biblioteca,0,Lombardia,Cultura e sapere
Biblioteca Comunale Mario Rivosecchi,42.9898222,13.8681182,Grottammare,Biblioteca,0,Marche,Cultura e sapere
Biblioteca Archimede,45.1359248,7.7663538,Settimo Torinese,Biblioteca,1,Piemonte,Cultura e sapere
Biblioteca comunale Giovanni Maria Cherchi,40.6357981,8.489264,Uri,Biblioteca,0,Sardegna,Cultura e sapere
Öffentliche Bibliothek - Biblioteca civica,46.664594,10.5843279,Schluderns - Sluderno,Biblioteca,0,Trentino-Alto Adige,Cultura e sapere
Biblioteca Comunale di Luras,40.9344123,9.1777224,Luras,Biblioteca,0,Sardegna,Cultura e sapere
Biblioteca Comunale di Siamaggiore,39.9493137,8.6353977,Siamaggiore,Biblioteca,0,Sardegna,Cultura e sapere
Ex Biblioteca di Abbasanta,40.1227422,8.8236561,Ghilarza,Biblioteca,0,Sardegna,Cultura e sapere
Biblioteca Comunale Peppino Impastato,42.8738913,12.0428438,Fabro,Biblioteca,0,Umbria,Cultura e sapere
Biblioteca Comunale Giuseppe Ceci,41.2239364,16.2952843,Andria,Biblioteca,0,Puglia,Cultura e sapere
Biblioteca Comunale,41.3534159,14.3721939,Piedimonte Matese,Biblioteca,0,Campania,Cultura e sapere
Palazzo delle Poste,41.3017057,13.0252381,Sabaudia,Biblioteca,0,Lazio,Arte antica e medievale
Biblioteca Civica Borgo Cavour,45.6675497,12.2385332,Treviso,Biblioteca,0,Veneto,Cultura e sapere
Il Pertini,45.5585805,9.2140212,Cinisello Balsamo,Biblioteca,1,Lombardia,Cultura e sapere
Biblioteca comunale,45.741148,11.260286,Valli Del Pasubio,Biblioteca,0,Veneto,Cultura e sapere
Biblioteca Annone Veneto,45.7955516,12.684397,Annone Veneto,Biblioteca,0,Veneto,Cultura e sapere
Biblioteca civica Uberto Pozzoli,45.8560659,9.3914215,Lecco,Biblioteca,0,Lombardia,Cultura e sapere
Biblioteca Comunale,43.4733295,11.1463516,Poggibonsi,Biblioteca,0,Toscana,Cultura e sapere
Biblioteca Comunale,41.9650617,12.7976126,Tivoli,Biblioteca,0,Lazio,Cultura e sapere
"Biblioteca ""Madre Laura Baraggia""",45.6874391,9.3526407,Missaglia,Biblioteca,0,Lombardia,Cultura e sapere
Biblioteca Statale Isontina,45.9462493,13.6237993,Gorizia,Biblioteca,0,Friuli-Venezia Giulia,Cultura e sapere
Biblioteca Polo di Lecco,45.8490925,9.3971414,Lecco,Biblioteca,0,Lombardia,Cultura e sapere
Biblioteca Comunale di Sorradile,40.1049889,8.9316906,Sorradile,Biblioteca,0,Sardegna,Cultura e sapere
"Biblioteca Comunale ""Peppino Impastato""",41.9595443,12.0714488,Ladispoli,Biblioteca,0,Lazio,Cultura e sapere
Biblioteca comunale,45.8064538,9.4013645,Garlate,Biblioteca,0,Lombardia,Cultura e sapere
Biblioteca Comunale,45.5736837,9.4244389,Cambiago,Biblioteca,0,Lombardia,Cultura e sapere
Biblioteca Comunale,39.5122646,16.2853289,Bisignano,Biblioteca,0,Calabria,Cultura e sapere
Biblioteca Valtesse,45.7160366,9.6617147,Bergamo,Biblioteca,0,Lombardia,Cultura e sapere
ex Chiesa parrocchiale,43.8514695,10.6860433,Montecarlo,Biblioteca,0,Toscana,Arte antica e medievale
Biblioteca Comunale Peppinetto Boy,39.7690986,8.8156315,Ales,Biblioteca,0,Sardegna,Cultura e sapere
"Biblioteca comunale ""Lorenzo Marzocchi""",43.8366463,10.7244528,Chiesina Uzzanese,Biblioteca,0,Toscana,Cultura e sapere
Biblioteca Giovanni Arpino,44.9946792,7.6381541,Nichelino,Biblioteca,1,Piemonte,Cultura e sapere
Biblioteca Rotonda,44.620664,10.9250572,Modena,Biblioteca,0,Emilia-Romagna,Cultura e sapere
Biblioteca Civica del Comune di Creazzo,45.5319515,11.479083,Creazzo,Biblioteca,0,Veneto,Cultura e sapere
Biblioteca Metropolitana Emilio Lussu,39.2344074,9.1173614,Cagliari,Biblioteca,0,Sardegna,Cultura e sapere
Biblioteca Comunale Villapizzone,45.4993039,9.1475693,Milano,Biblioteca,1,Lombardia,Cultura e sapere
Biblioteca Giulio Regeni,45.6725395,9.6601004,Bergamo,Biblioteca,1,Lombardia,Cultura e sapere
Aula studio Torpignattara,41.8805989,12.542895,Roma,Biblioteca,0,Lazio,Cultura e sapere
Biblioteca di Capriate San Gervasio,45.6177429,9.5247958,Capriate San Gervasio,Biblioteca,1,Lombardia,Cultura e sapere
Mezzana,46.314737,10.7962874,Mezzana,Biblioteca,0,Trentino-Alto Adige/Südtirol,Cultura e sapere
Biblioteca MOviMEnte,45.1931633,7.8872387,Chivasso,Biblioteca,0,Piemonte,Cultura e sapere
Biblioteca di Colico,46.1390719,9.374317,Colico,Biblioteca,0,Lombardia,Cultura e sapere
Biblioteca Comunale,37.8594986,14.1547876,Geraci Siculo,Biblioteca,0,Sicilia,Cultura e sapere
Biblioteca comunale Villa Burba,45.5335044,9.0280671,Rho,Biblioteca,0,Lombardia,Cultura e sapere
Biblioteca Civica,45.6489148,9.3801195,Carnate,Biblioteca,0,Lombardia,Cultura e sapere
Biblioteca Comunale,46.0109924,11.3025818,Levico Terme,Biblioteca,0,Trentino-Alto Adige/Südtirol,Cultura e sapere
Biblioteca Anna Frank,45.7496252,9.0097588,Bulgarograsso,Biblioteca,0,Lombardia,Cultura e sapere
Biblioteca comunale Giuseppe Parini,45.8012213,9.28749,Bosisio Parini,Biblioteca,0,Lombardia,Cultura e sapere
Öffentliche Bibliothek,46.7835533,11.9020508,San Lorenzo Di Sebato,Biblioteca,0,Trentino-Alto Adige/Südtirol,Cultura e sapere
Biblioteca comunale Vallesiana,43.6066222,10.970469,Castelfiorentino,Biblioteca,0,Toscana,Cultura e sapere
Biblioteca Comunale,42.5681826,11.8194864,Valentano,Biblioteca,0,Lazio,Cultura e sapere
Biblioteca Monza - Triante,45.5831674,9.2553114,Monza,Biblioteca,0,Lombardia,Cultura e sapere
Biblioteca Civica - Monza,45.5838734,9.2724811,Monza,Biblioteca,0,Lombardia,Cultura e sapere
Biblioteca comunale Gianfranco Contini,46.1141542,8.2893197,Domodossola,Biblioteca,0,Piemonte,Cultura e sapere
Biblioteca Comunale,45.232181,11.87447,Conselve,Biblioteca,0,Veneto,Cultura e sapere
Biblioteca Comunale,45.2681232,11.8620916,Cartura,Biblioteca,0,Veneto,Cultura e sapere
Biblioteca Comunale,45.2858064,11.8256837,Due Carrare,Biblioteca,0,Veneto,Cultura e sapere
"Biblioteca ""Lelio Basso""",44.980982,7.741169,Trofarello,Biblioteca,1,Piemonte,Cultura e sapere
"Biblioteca Comunale ""Amico Libro""",41.0646391,14.6407057,Montesarchio,Biblioteca,0,Campania,Cultura e sapere
Biblioteca comunale,43.7600317,10.877462,Cerreto Guidi,Biblioteca,0,Toscana,Cultura e sapere
"Biblioteca ""Gaetano Ricchetti""",41.1194639,16.8698036,Bari,Biblioteca,0,Puglia,Cultura e sapere
"Biblioteca ""G.Ragazzoni""",45.9710424,12.143103,Cison Di Valmarino,Biblioteca,0,Veneto,Cultura e sapere
Casa delle Culture,41.0582268,17.0881725,Mola Di Bari,Biblioteca,0,Puglia,Cultura e sapere
Biblioteca civica,44.4944745,8.1884368,Castelletto Uzzone,Biblioteca,0,Piemonte,Cultura e sapere
Biblioteca Civica Comunale,45.3480193,12.0059073,Sant'Angelo Di Piove Di Sacco,Biblioteca,0,Veneto,Cultura e sapere
"Biblioteca comunale ""Guarnacci""",43.4011958,10.8638487,Volterra,Biblioteca,0,Toscana,Cultura e sapere
Biblioteca civica Renato Bortoli,45.7150738,11.3602074,Schio,Biblioteca,1,Veneto,Cultura e sapere
"Biblioteca Comunale ""Faustino Dalmazzo""",44.4992815,7.5846395,Centallo,Biblioteca,0,Piemonte,Cultura e sapere
Biblioteca Comunale Antonio Gamberi,43.0114834,11.1674687,Roccastrada,Biblioteca,0,Toscana,Cultura e sapere
Villa Griffey (PEBA) Progetto PNRR M1C3-3 INTERVENTO 1.2,45.258087,11.7909465,Pernumia,Biblioteca,1,Veneto,Cultura e sapere
Biblioteca della Prefettura di Caserta,41.0758438,14.3334445,Caserta,Biblioteca,0,Campania,Cultura e sapere
"Biblioteca ""A. Majani Nasìca""",44.5374018,11.5377247,Budrio,Biblioteca,1,Emilia-Romagna,Cultura e sapere
"Biblioteca ""Sigmund Freud""",45.9406563,11.2704894,Gionghi,Biblioteca,0,Trentino-Alto Adige,Cultura e sapere
Biblioteca comunale Augusto Marinoni,45.5996835,8.9140253,Legnano,Biblioteca,0,Lombardia,Cultura e sapere
Progetto Biblioteca Gorla,45.5052262,9.2245106,Milano,Biblioteca,0,Lombardia,Cultura e sapere
Biblioteca comunale Lidia Macchi,45.9677359,8.8576335,Lavena Ponte Tresa,Biblioteca,1,Lombardia,Cultura e sapere
"Biblioteca comunale ""Paola Ciotti""",45.8351245,8.7821271,Casciago,Biblioteca,0,Lombardia,Cultura e sapere
Biblioteca Cesare Pavese,44.7914618,10.3584614,Parma,Biblioteca,1,Emilia-Romagna,Cultura e sapere
"Biblioteca comunale ""Luigi Giovene Marinelli""",41.1319775,16.5421601,Terlizzi,Biblioteca,1,Puglia,Cultura e sapere
Biblioteca Fabrizio Giucca,41.8680385,12.5006702,Roma,Biblioteca,0,Lazio,Cultura e sapere
Biblioteca A. Canali,45.4154541,11.9517739,Noventa Padovana,Biblioteca,0,Veneto,Cultura e sapere
Biblioteca Civica,44.5888166,7.664333,Genola,Biblioteca,0,Piemonte,Cultura e sapere
"Biblioteca Comunale ""Concetto Marchesi""",45.2900748,11.7833336,Battaglia Terme,Biblioteca,0,Veneto,Cultura e sapere
Biblioteca Multimediale Giovanni Michelucci,43.8468098,10.976907,Quarrata,Biblioteca,0,Toscana,Cultura e sapere
Ex chiesa di San Carlo,44.4275167,7.9783085,Castellino Tanaro,Biblioteca,0,Piemonte,Arte antica e medievale
Biblioteca di Scienze naturali e ambientali,43.7184833,10.3951033,Pisa,Biblioteca,0,Toscana,Scienze e natura
Biblioteca Comunale,39.9273644,18.360811,Tricase,Biblioteca,0,Puglia,Cultura e sapere
Biblioteca Civica di Magliano Alfieri,44.7602921,8.0704657,Magliano Alfieri,Biblioteca,0,Piemonte,Cultura e sapere
Biblioteca comunale Paolo Borsellino,45.8084133,9.0812103,Como,Biblioteca,0,Lombardia,Cultura e sapere
Biblioteca storica cadorina,46.4997158,12.4718613,Vigo Di Cadore,Biblioteca,0,Veneto,Cultura e sapere
Biblioteca Fondazione Varrone,42.4014997,12.863321,Rieti,Biblioteca,0,Lazio,Arte moderna e contemporanea
Vigilianum - Polo Culturale Diocesano,46.0616002,11.1220314,Trento,Biblioteca,0,Trentino-Alto Adige/Südtirol,Cultura e sapere
Biblioteca Finia,40.8171833,16.4146294,Gravina In Puglia,Biblioteca,0,Puglia,Cultura e sapere
Biblioteca Comunale di Gavardo,45.5821584,10.4377676,Gavardo,Biblioteca,0,Lombardia,Cultura e sapere
Bibioteca di Rocca di Papa,41.7592653,12.7080617,Rocca Di Papa,Biblioteca,0,Lazio,Arte antica e medievale
Biblioteca Intercomunale di Primiero,46.1761512,11.8303483,Primiero San Martino Di Castrozza,Biblioteca,0,Trentino-Alto Adige/Südtirol,Cultura e sapere
Palazzo Muscio-Messina,40.7473349,15.880374,Pietragalla,Biblioteca,0,Basilicata,Arte antica e medievale
Biblioteca comunale Adelio Lazzarinetti di Persico Dosimo,45.1673492,10.0748071,Persico Dosimo,Biblioteca,0,Lombardia,Cultura e sapere
Biblioteca Civica «A. Masci»,39.5474987,16.3278706,Santa Sofia D'Epiro,Biblioteca,0,Calabria,Cultura e sapere
Biblioteca comunale di Buccinasco,45.4251603,9.1227821,Buccinasco,Biblioteca,0,Lombardia,Cultura e sapere
Biblioteca Comunale di Concorezzo,45.5905201,9.3357662,Concorezzo,Biblioteca,0,Lombardia,Cultura e sapere
Sandro Amadori,46.4893175,11.3250088,Bolzano,Biblioteca,0,Trentino-Alto Adige/Südtirol,Cultura e sapere
Biblioteca Firmian,46.4910618,11.3141061,Bolzano - Bozen,Biblioteca,0,Trentino-Alto Adige,Cultura e sapere
Biblioteca Comunale,45.0312283,11.4608383,Trecenta,Biblioteca,0,Veneto,Cultura e sapere
Fondazione Luigi Micheletti,45.5391446,10.2138699,Brescia,Biblioteca,0,Lombardia,Arte moderna e contemporanea
Associazione SportivaMente,44.8723292,7.2909366,Prarostino,Biblioteca,0,Piemonte,Cultura e sapere
Biblioteca Comunale Alessandro Minuziano / Edificio Scolastico Giovanni Pascoli,41.682373,15.3784982,San Severo,Biblioteca,0,Puglia,Cultura e sapere
Ex Biblioteca comunale,46.1620826,11.3032299,Bedollo,Biblioteca,0,Trentino-Alto Adige/Südtirol,Cultura e sapere
Biblioteca Area Economica,41.4610339,15.5581328,Foggia,Biblioteca,0,Puglia,Cultura e sapere
Biblioteca Comunale Durante,37.8826278,15.3101864,Letojanni,Biblioteca,0,Sicilia,Cultura e sapere
Biblioteca Comunale,45.7138064,8.6433987,Castelletto Sopra Ticino,Biblioteca,0,Piemonte,Cultura e sapere
Biblioteca comunale,41.0440456,14.7605552,Ceppaloni,Biblioteca,0,Campania,Cultura e sapere
Biblioteca Comunale,41.2246297,16.0670235,Canosa Di Puglia,Biblioteca,0,Puglia,Cultura e sapere
"Biblioteca Comunale Fiumicino ""Giulio Regeni""",41.770292,12.2390854,Fiumicino,Biblioteca,0,Lazio,Cultura e sapere
Biblioteca Comunale D'Addosio,41.0454371,16.9243752,Capurso,Biblioteca,0,Puglia,Cultura e sapere
Biblioteca comunale Giuseppe Vasile,45.8399146,8.7684,Luvinate,Biblioteca,0,Lombardia,Cultura e sapere
Biblioteca civica,45.4925945,7.8636684,Montalto Dora,Biblioteca,0,Piemonte,Cultura e sapere
Biblioteca Galline Bianche,41.9957602,12.4858518,Roma,Biblioteca,0,Lazio,Cultura e sapere
Biblioteca comunale,46.3520556,10.691758,Peio,Biblioteca,0,Trentino-Alto Adige/Südtirol,Cultura e sapere
"Biblioteca Comunale ""Luigi Arbizzani""",44.6461948,11.3761203,San Giorgio Di Piano,Biblioteca,1,Emilia-Romagna,Cultura e sapere
Biblioteca Comunale,37.9622592,13.4578961,Bolognetta,Biblioteca,0,Sicilia,Cultura e sapere
Biblioteca Comunale (ex archivio notarile),37.3095755,13.5862283,Agrigento,Biblioteca,0,Sicilia,Cultura e sapere
"Biblioteca Nazionale ""Sagarriga Visconti Volpi""",41.1289278,16.8461808,Bari,Biblioteca,0,Puglia,Cultura e sapere
Biblioteca di Comunità Ignazio Ciaia - I PORTICI,40.8356605,17.357696,Fasano,Biblioteca,1,Puglia,Cultura e sapere
"Biblioteca Civica ""Carlo Goldoni""",45.7201838,11.4548979,Zanè,Biblioteca,0,Veneto,Cultura e sapere
biblioteca Mastromauro,41.0776609,16.8719262,Bari,Biblioteca,0,Puglia,Cultura e sapere
Biblioteca Silvia Guerra,45.0597655,8.8456338,Mezzana Bigli,Biblioteca,0,Lombardia,Cultura e sapere
Öffentliche Bibliothek Tirol - Biblioteca di Tirolo,46.6904807,11.1531034,Tirol - Tirolo,Biblioteca,1,Trentino-Alto Adige,Cultura e sapere
Biblioteca Oriano Tassinari Clò,44.4872982,11.3151025,Bologna,Biblioteca,1,Emilia-Romagna,Cultura e sapere
Biblioteca Civica Walter Giuliano Fabbris,45.6806824,11.3775707,San Vito Di Leguzzano,Biblioteca,1,Veneto,Cultura e sapere
Biblioteca centrale Antonio Tiraboschi,45.6872352,9.6632404,Bergamo,Biblioteca,0,Lombardia,Cultura e sapere
Biblioteca di Grottaferrata Bruno Martellotta,41.7950103,12.6693196,Grottaferrata,Biblioteca,1,Lazio,Cultura e sapere
Biblioteca Comunale,40.3499746,17.724565,Avetrana,Biblioteca,0,Puglia,Cultura e sapere
Biblioteca dei Padri Gesuiti,40.5403508,17.4414517,Grottaglie,Biblioteca,0,Puglia,Cultura e sapere
"Biblioteca Civica ""Paolo e Paola Maria Arcari""",46.2171068,10.1723668,Tirano,Biblioteca,0,Lombardia,Cultura e sapere
Bibliothek St. Jakob - Biblioteca di San Giacomo,47.0113485,12.0122341,Valle Aurina,Biblioteca,0,Trentino-Alto Adige/Südtirol,Cultura e sapere
Biblioteca Civica di Latisana,45.7783748,12.9949466,Latisana,Biblioteca,0,Friuli-Venezia Giulia,Cultura e sapere
Biblioteca comunale,40.385204,17.9577892,Salice Salentino,Biblioteca,0,Puglia,Cultura e sapere
Biblioteca di Molveno,46.1426954,10.9641168,Molveno,Biblioteca,0,Trentino-Alto Adige/Südtirol,Cultura e sapere
Medateca,45.6615829,9.1604462,Meda,Biblioteca,0,Lombardia,Cultura e sapere
Biblioteca comunale archivio storico Piero Calamandrei,43.093142,11.780966,Montepulciano,Biblioteca,0,Toscana,Cultura e sapere
Biblioteca Clarina,46.0517426,11.1276494,Trento,Biblioteca,0,Trentino-Alto Adige/Südtirol,Cultura e sapere
Biblioteca di Olevano,45.2126968,8.71662,Olevano Di Lomellina,Biblioteca,0,Lombardia,Cultura e sapere
Biblioteca Comunale,44.2014193,12.3978551,Cesenatico,Biblioteca,0,Emilia-Romagna,Cultura e sapere
Biblioteca delle Storie Infinite,45.416009,9.0699965,Trezzano Sul Naviglio,Biblioteca,0,Lombardia,Cultura e sapere
Biblioteca Centro Culturale Cesare Cantù di Rovato,45.5658851,9.9996135,Rovato,Biblioteca,0,Lombardia,Cultura e sapere
Biblioteca Comunale,43.5145354,12.7386985,Frontone,Biblioteca,0,Marche,Cultura e sapere
Centro Civico; Biblioteca,45.6987087,9.8254067,Cenate Sotto,Biblioteca,0,Lombardia,Cultura e sapere
Biblioteca Civica,45.5671521,8.0490316,Biella,Biblioteca,1,Piemonte,Cultura e sapere
Biblioteca Comunale,44.7138677,11.3067258,Pieve Di Cento,Biblioteca,0,Emilia-Romagna,Cultura e sapere
Biblioteca Comunale Oglio,45.4405617,9.2175278,Milano,Biblioteca,1,Lombardia,Cultura e sapere
"Biblioteca Comunale ""Leonardo Sciascia",37.4682228,13.7329932,Milena,Biblioteca,0,Sicilia,Cultura e sapere
Biblioteca Raffaello,41.8440645,12.5835121,Roma,Biblioteca,1,Lazio,Cultura e sapere
Biblioteca Rugantino,41.8652831,12.5780208,Roma,Biblioteca,1,Lazio,Cultura e sapere
Biblioteca Carlo Bertolazzi,45.4704819,9.5137625,Rivolta D'Adda,Biblioteca,0,Lombardia,Cultura e sapere
Ispesl - Istituto Superiore Prevenzione Sicurezza Lavoro,41.8226083,12.7070519,Monte Porzio Catone,Biblioteca,0,Lazio,Cultura e sapere
Biblioteca Comunale,45.6306692,9.2748536,Biassono,Biblioteca,0,Lombardia,Cultura e sapere
Biblioteca diocesana di Ancona,43.6233712,13.5124726,Ancona,Biblioteca,0,Marche,Cultura e sapere
Biblioteca Comunale,45.9568667,9.1286722,Pigra,Biblioteca,0,Lombardia,Cultura e sapere
Biblioteca Acclavio,40.4637757,17.2606477,Taranto,Biblioteca,0,Puglia,Cultura e sapere
Biblioteca Comunale “Enzo Aprea”,40.7698584,14.4058035,Torre Del Greco,Biblioteca,0,Campania,Cultura e sapere
Biblioteca Comunale,45.0071439,10.9804008,Quistello,Biblioteca,0,Lombardia,Cultura e sapere
Biblioteca comunale Elsa Morante,45.7035409,8.8741739,Lonate Ceppino,Biblioteca,0,Lombardia,Cultura e sapere
Biblioteca Comunale,42.0334925,12.6412453,Mentana,Biblioteca,0,Lazio,Cultura e sapere
Biblioteca Comunale Luigi Capuana,36.7869861,14.9097553,Ispica,Biblioteca,0,Sicilia,Cultura e sapere
Biblioteca Comunale,45.6476411,10.4955725,Vobarno,Biblioteca,0,Lombardia,Cultura e sapere
Biblioteca di Antichistica,43.7193213,10.3981553,Pisa,Biblioteca,0,Toscana,Cultura e sapere
Biblioteca Pasquale Foresi,43.6580675,11.4340873,Figline E Incisa Valdarno,Biblioteca,0,Toscana,Cultura e sapere
"Biblioteca Comunale ""Sandro Pertini""",45.0080738,7.5376378,Orbassano,Biblioteca,0,Piemonte,Cultura e sapere
Biblioteca Civica Andrea Zapelloni Pittore,45.883288,8.5382922,Stresa,Biblioteca,0,Piemonte,Cultura e sapere
Biblioteca parrocchiale Santa Maria a Mare,40.2861521,14.9469202,Castellabate,Biblioteca,0,Campania,Cultura e sapere
Biblioteca Comunale,42.3835431,12.2311072,Canepina,Biblioteca,0,Lazio,Cultura e sapere
"Biblioteca Comunale ""Mario Luzi""",44.7010229,11.4041086,San Pietro In Casale,Biblioteca,0,Emilia-Romagna,Cultura e sapere
Biblioteca Comunale,42.0431082,13.4238865,Avezzano,Biblioteca,0,Abruzzo,Cultura e sapere
"Biblioteca ""Livio Pozzo""",45.5457547,8.1102536,Candelo,Biblioteca,0,Piemonte,Cultura e sapere
Biblioteca Comunale,40.8190016,14.3302916,Portici,Biblioteca,0,Campania,Cultura e sapere
Biblioteca - Centro culturale,45.5850841,11.4859825,Costabissara,Biblioteca,0,Veneto,Cultura e sapere
Biblioteca comunale,45.2107948,9.2556962,Cura Carpignano,Biblioteca,1,Lombardia,Cultura e sapere
Biblioteca Casa dei Bimbi,41.8520659,12.5925212,Roma,Biblioteca,1,Lazio,Cultura e sapere
Biblioteca Comunale,38.4352182,16.084779,Anoia,Biblioteca,0,Calabria,Cultura e sapere
Biblioteca comunale di Belfiore,45.3804618,11.2080438,Belfiore,Biblioteca,0,Veneto,Cultura e sapere
Biblioteca Civica Villa Belotti,45.7930651,9.6615649,Zogno,Biblioteca,0,Lombardia,Cultura e sapere
Biblioteca comunale Giorgio Colli,45.3333375,7.6251745,Rivara,Biblioteca,0,Piemonte,Cultura e sapere
Biblioteca Comunale,45.2385033,9.4111372,Sant'Angelo Lodigiano,Biblioteca,0,Lombardia,Cultura e sapere
Biblioteca Comunale G. Tiboni,45.667018,8.6335836,Varallo Pombia,Biblioteca,0,Piemonte,Cultura e sapere
Biblioteca,45.4205928,8.0675242,Roppolo,Biblioteca,0,Piemonte,Cultura e sapere
Emeroteca,41.130395,14.7801393,Benevento,Biblioteca,0,Campania,Cultura e sapere
Biblioteca Civica,45.6138567,9.3684702,Vimercate,Biblioteca,0,Lombardia,Cultura e sapere
Biblioteca Civica Maestra Teresa Bertoldo,45.4255143,8.0503381,Viverone,Biblioteca,0,Piemonte,Cultura e sapere
Biblioteca e centro culturale,40.8345362,17.3588988,Fasano,Biblioteca,0,Puglia,Cultura e sapere
Biblioteca di Bardello,45.8355121,8.6973546,Bardello,Biblioteca,0,Lombardia,Cultura e sapere
Archivio di Stato di Rieti,42.4054819,12.8588832,Rieti,Biblioteca,0,Lazio,Cultura e sapere
Biblioteca Comunale,39.8284159,16.3128274,Civita,Biblioteca,0,Calabria,Cultura e sapere
"Biblioteca Comunale ""Carlo Levi""",41.7119997,12.6906837,Genzano Di Roma,Biblioteca,0,Lazio,Cultura e sapere
Biblioteca Comunale,45.5038954,8.1196432,Verrone,Biblioteca,0,Piemonte,Cultura e sapere
Biblioteca Civica,45.5360357,8.0538585,Ponderano,Biblioteca,0,Piemonte,Cultura e sapere
Biblioteca Civica Don Angelo Stoppa,45.4106018,8.7829717,Cerano,Biblioteca,0,Piemonte,Cultura e sapere
Stadtbibliothek Kathi Trojer - Biblioteca Civica Kathi Trojer,46.7152351,11.6571354,Bressanone,Biblioteca,1,Trentino-Alto Adige/Südtirol,Cultura e sapere
Biblioteca,45.4925354,7.9976136,Zubiena,Biblioteca,0,Piemonte,Cultura e sapere
Biblioteca Comunale,40.5829285,9.111688,Patada/Pattada,Biblioteca,0,Sardegna,Cultura e sapere
Biblioteca e magazzino comunale,45.5433128,8.0037011,Camburzano,Biblioteca,0,Piemonte,Cultura e sapere
Biblioteca Comunale Giuseppe Calabrò,37.5396083,15.0992096,Tremestieri Etneo,Biblioteca,0,Sicilia,Cultura e sapere
Biblioteca universitaria di Genova (BUG),44.4163613,8.9229593,Genova,Biblioteca,0,Liguria,Cultura e sapere
Biblioteca,45.7473105,7.3916404,Quart,Biblioteca,0,Valle d'Aosta/Vallée d'Aoste,Cultura e sapere
Biblioteca comunale Nino Scaglia,45.8491507,10.5787783,Storo,Biblioteca,0,Trentino-Alto Adige/Südtirol,Cultura e sapere
Biblioteca Comunale Grazia Deledda,40.4105726,8.6353718,Mara,Biblioteca,0,Sardegna,Cultura e sapere
Biblioteca Comunale,45.9914555,9.9461381,Gandellino,Biblioteca,0,Lombardia,Cultura e sapere
Biblioteca Palazzo Maffei,46.1754862,11.2212842,Cembra Lisignago,Biblioteca,0,Trentino-Alto Adige/Südtirol,Arte antica e medievale
Biblioteca comunale di Dresano,45.3741461,9.3582643,Dresano,Biblioteca,0,Lombardia,Cultura e sapere
Biblioteca della Pontificia Università della Santa Croce,41.8949927,12.4699786,Roma,Biblioteca,0,Lazio,Cultura e sapere
Biblioteca Comunale Santa Luce,43.4718091,10.5628018,Santa Luce,Biblioteca,0,Toscana,Cultura e sapere
"Biblioteca Civica ""Nicolò e Paola Francone""",45.0151569,7.8196705,Chieri,Biblioteca,1,Piemonte,Cultura e sapere
Biblioteca del Polo scientifico dell'Università di Firenze,43.818776,11.1922298,Sesto Fiorentino,Biblioteca,0,Toscana,Scienze e natura
Biblioteca comunale di Inveruno,45.5126544,8.8526439,Inveruno,Biblioteca,0,Lombardia,Cultura e sapere
Biblioteca Comunale del Villaggio del Pescatore,45.7823746,13.5869741,Duino Aurisina,Biblioteca,0,Friuli-Venezia Giulia,Cultura e sapere
Biblioteca Civica,44.7484275,8.5241368,Cassine,Biblioteca,0,Piemonte,Cultura e sapere
Biblioteca Civica,45.7003666,8.7640027,Besnate,Biblioteca,0,Lombardia,Cultura e sapere
Biblioteca comunale,45.6760402,8.2157412,Pray,Biblioteca,0,Piemonte,Cultura e sapere
Biblioteca comunale di Gorla Minore,45.6418617,8.8988828,Gorla Minore,Biblioteca,0,Lombardia,Cultura e sapere
Biblioteca comunale,45.9142433,12.853559,San Vito Al Tagliamento,Biblioteca,0,Friuli-Venezia Giulia,Cultura e sapere
Biblio Haslach,46.4870907,11.3506189,Bolzano,Biblioteca,0,Trentino-Alto Adige/Südtirol,Cultura e sapere
Biblioteca civica Giacinto Di Leo,45.5971321,9.0769548,Cesate,Biblioteca,0,Lombardia,Cultura e sapere
Biblioteca Ospedale San Donato,43.4622998,11.866254,Arezzo,Biblioteca,1,Toscana,Cultura e sapere
Biblioteca comunale,43.0727815,12.6099193,Assisi,Biblioteca,0,Umbria,Cultura e sapere
Biblioteca comunale di Siziano,45.3185212,9.1996944,Siziano,Biblioteca,0,Lombardia,Cultura e sapere
Centro Parco Cascina Maria,45.6798643,9.4461275,Paderno D'Adda,Biblioteca,0,Lombardia,Cultura e sapere
Biblioteca Comunale di Caldogno,45.6143268,11.5075376,Caldogno,Biblioteca,0,Veneto,Cultura e sapere
Biblioteca Comunale,45.484562,8.957093,Vittuone,Biblioteca,0,Lombardia,Cultura e sapere
Biblioteca Comunale,43.6788708,12.6443355,Fermignano,Biblioteca,0,Marche,Cultura e sapere
Biblioteca Comunale,42.5240354,13.0962923,Posta,Biblioteca,0,Lazio,Cultura e sapere
Effemme 23,43.5059468,13.1361284,Maiolati Spontini,Biblioteca,0,Marche,Cultura e sapere
Biblioteca Comunale,45.6156868,8.0529923,Andorno Micca,Biblioteca,0,Piemonte,Cultura e sapere
Biblioteca Eugenio Garin,44.8794343,11.0782045,Mirandola,Biblioteca,0,Emilia-Romagna,Cultura e sapere
Biblioteca Comunale Grazia Deledda,39.4389941,9.5390874,San Vito,Biblioteca,0,Sardegna,Cultura e sapere
Öffentliche Bibliothek Percha,46.7900655,11.9926044,Perca,Biblioteca,1,Trentino-Alto Adige/Südtirol,Cultura e sapere
Biblioteca Comunale,45.6525131,9.5473667,Madone,Biblioteca,0,Lombardia,Cultura e sapere
"Biblioteca Comunale ""I Sufeti"" di Sant'Antioco",39.0696283,8.4509086,Sant'Antioco,Biblioteca,0,Sardegna,Cultura e sapere
Biblioteca Comunale,45.8141822,9.3760213,Galbiate,Biblioteca,0,Lombardia,Cultura e sapere
Biblioteca Comunale,42.9437362,13.882773,San Benedetto Del Tronto,Biblioteca,0,Marche,Cultura e sapere
Biblioteca comunale Bassanello-Voltabarozzo,45.3803865,11.8720639,Padova,Biblioteca,0,Veneto,Cultura e sapere
Biblioteca Comunale,45.2360729,7.7375839,Lombardore,Biblioteca,0,Piemonte,Cultura e sapere
Biblioteca Comunale,45.7122513,9.4640899,Villa D'Adda,Biblioteca,0,Lombardia,Cultura e sapere
Biblioteca Comunale,45.5906276,8.0390902,Pralungo,Biblioteca,0,Piemonte,Cultura e sapere
Biblioteca Comunale,45.6848127,12.6368419,Ceggia,Biblioteca,0,Veneto,Cultura e sapere
Biblioteca intercomunale Lavis-Terre d'Adige,46.1380454,11.1136468,Lavis,Biblioteca,0,Trentino-Alto Adige/Südtirol,Cultura e sapere
Biblioteca Comunale,37.9910532,13.8860778,Campofelice Di Roccella,Biblioteca,0,Sicilia,Cultura e sapere
Biblioteca D.R. Canova,45.5930125,8.051424,Tollegno,Biblioteca,0,Piemonte,Cultura e sapere
Biblioteca Comunale - Centro Incontro,45.5938072,8.0514045,Tollegno,Biblioteca,0,Piemonte,Cultura e sapere
Biblioteca Comunale Villongo,45.6721105,9.9305947,Villongo,Biblioteca,0,Lombardia,Cultura e sapere
Biblioteca,45.6254153,9.4428396,Mezzago,Biblioteca,0,Lombardia,Cultura e sapere
Biblioteca Gaetano Badii,43.0522618,10.8940825,Massa Marittima,Biblioteca,0,Toscana,Cultura e sapere
Biblioteca Comunale di Ronco Briantino,45.6664806,9.3975597,Ronco Briantino,Biblioteca,0,Lombardia,Cultura e sapere
Biblioteca Comunale,40.9744209,14.2009825,Aversa,Biblioteca,0,Campania,Cultura e sapere
Biblioteca Ennio Flaiano,41.9470452,12.5309297,Roma,Biblioteca,0,Lazio,Cultura e sapere
Casa del Parco,41.9104619,12.4251951,Roma,Biblioteca,0,Lazio,Cultura e sapere
Biblioteca Comunale,44.9859301,10.4162686,Casalmaggiore,Biblioteca,0,Lombardia,Cultura e sapere
Biblioteca comunale,43.6576178,11.1842863,San Casciano In Val Di Pesa,Biblioteca,0,Toscana,Cultura e sapere
Biblioteca Comunale M.R.Imbriani,41.1519131,16.4121853,Corato,Biblioteca,0,Puglia,Cultura e sapere
Villa Brunati,45.4613507,10.5673519,Desenzano Del Garda,Biblioteca,0,Lombardia,Cultura e sapere
Biblioteca Comunale,45.9737189,9.4543472,Introbio,Biblioteca,0,Lombardia,Cultura e sapere
"Biblioteca Comunale ""Armando La Torre""",38.2698891,16.2967138,Siderno,Biblioteca,0,Calabria,Arte antica e medievale
Biblioteca Civica Benedetto Croce,45.5819395,7.999231,Pollone,Biblioteca,0,Piemonte,Cultura e sapere
Biblioteca Salaborsa,44.494773,11.3414234,Bologna,Biblioteca,1,Emilia-Romagna,Cultura e sapere
Biblioteca Comunale,43.657648,11.1845383,San Casciano In Val Di Pesa,Biblioteca,0,Toscana,Cultura e sapere
Biblioteca Comunale Giovanni Giovannini,43.6955727,11.8168664,Bibbiena,Biblioteca,0,Toscana,Cultura e sapere
Biblioteca Comunale,42.8735641,13.7076387,Castel Di Lama,Biblioteca,0,Marche,Cultura e sapere
Biblioteca comunale Oriana Fallaci,45.4665582,8.8859699,Magenta,Biblioteca,0,Lombardia,Cultura e sapere
Biblioteca Comunale Margherita Pelletta,44.97853,8.0627427,Cortazzone,Biblioteca,0,Piemonte,Cultura e sapere
Biblioteca Comunale,42.0600792,13.6260433,Collarmele,Biblioteca,0,Abruzzo,Cultura e sapere
Biblioteca di Fuipiano,45.8571048,9.5249816,Fuipiano Valle Imagna,Biblioteca,1,Lombardia,Cultura e sapere
Biblioteca Comunale,45.7736677,12.046145,Montebelluna,Biblioteca,0,Veneto,Cultura e sapere
Mittelpunktsbibliothek Überetsch - Biblioteca di Appiano,46.4562183,11.2570924,Appiano Sulla Strada Del Vino,Biblioteca,1,Trentino-Alto Adige/Südtirol,Cultura e sapere
Biblioteca Beato Pio IX,41.8855451,12.5035565,Roma,Biblioteca,0,Lazio,Cultura e sapere
Civica Biblioteca Ricottiana,44.9909569,9.0048977,Voghera,Biblioteca,0,Lombardia,Cultura e sapere
Biblioteca Lazzerini,43.8764293,11.0986885,Prato,Biblioteca,0,Toscana,Cultura e sapere
Biblioteca Roncioniana,43.8796516,11.0961276,Prato,Biblioteca,0,Toscana,Cultura e sapere
Biblioteca DOCBI Centro Studi Biellesi,45.5675746,8.0570962,Biella,Biblioteca,0,Piemonte,Cultura e sapere
Biblioteca Fondazione Sella,45.571771,8.0592949,Biella,Biblioteca,0,Piemonte,Arte moderna e contemporanea
"Biblioteca di Biologia, Informatica, Chimica e Fisica",45.4763852,9.232409,Milano,Biblioteca,1,Lombardia,Cultura e sapere
Mabic,44.525189,10.8652791,Maranello,Biblioteca,1,Emilia-Romagna,Cultura e sapere
Biblioteca Comunale,43.8490068,12.78634,Montelabbate,Biblioteca,0,Marche,Cultura e sapere
Biblioteca Comunale di Valle Mosso,45.6352832,8.1425639,Valdilana,Biblioteca,0,Piemonte,Cultura e sapere
Biblioteca Civica Romolo Spezioli,43.1616132,13.717875,Fermo,Biblioteca,0,Marche,Cultura e sapere
B.U.C. Machinery,43.1616375,13.716796,Fermo,Biblioteca,0,Marche,Cultura e sapere
Biblioteca Palazzo Ducale,40.7049435,17.3393541,Martina Franca,Biblioteca,0,Puglia,Arte antica e medievale
"Centro Fumetto ""Andrea Pazienza""",45.1382747,10.0207673,Cremona,Biblioteca,0,Lombardia,Cultura e sapere
Biblioteca statale di Cremona,45.138396,10.0216863,Cremona,Biblioteca,1,Lombardia,Cultura e sapere
Biblioteca,46.0360273,10.0066152,Valbondione,Biblioteca,0,Lombardia,Cultura e sapere
Biblioteca Angelo di Mario,42.2513301,13.004745,Rocca Sinibalda,Biblioteca,0,Lazio,Cultura e sapere
Biblioteca civica Giuseppe Mazzini,44.4042498,8.685966,Arenzano,Biblioteca,1,Liguria,Cultura e sapere
Public Library,40.9146826,14.3075684,Afragola,Biblioteca,0,Campania,Cultura e sapere
Biblioteca provinciale Salvatore Tommasi,42.3411837,13.466724,L'Aquila,Biblioteca,0,Abruzzo,Cultura e sapere
"Biblioteca Comunale ""Giulio Gabrielli""",42.8551618,13.571686,Ascoli Piceno,Biblioteca,1,Marche,Cultura e sapere
Biblioteca Comunale,45.6093004,8.4838287,Cavaglio D'Agogna,Biblioteca,0,Piemonte,Cultura e sapere
Biblioteca Comunale,45.8820853,8.4121204,Omegna,Biblioteca,0,Piemonte,Cultura e sapere
Biblioteca Comunale Mario Arpea,42.2035044,13.5200708,Rocca Di Mezzo,Biblioteca,0,Abruzzo,Cultura e sapere
Biblioteca Palatina,44.804358,10.3262594,Parma,Biblioteca,0,Emilia-Romagna,Cultura e sapere
Biblioteca Universitaria,44.4970778,11.3530204,Bologna,Biblioteca,1,Emilia-Romagna,Cultura e sapere
"Biblioteca Civica ""Il Sognalibro""",44.9858622,7.8689267,Riva Presso Chieri,Biblioteca,0,Piemonte,Cultura e sapere
Biblioteca Comunale di Capriolo,45.6371337,9.9345093,Capriolo,Biblioteca,1,Lombardia,Cultura e sapere
Biblioteca di Valle,46.035999,10.8735889,Comano Terme,Biblioteca,0,Trentino-Alto Adige/Südtirol,Cultura e sapere
Biblioteca Comunale Don Erminio Ragozza,46.0032908,8.3290711,Premosello-Chiovenda,Biblioteca,0,Piemonte,Cultura e sapere
Biblioteca Comunale,42.9340055,13.6898779,Offida,Biblioteca,0,Marche,Cultura e sapere
"Biblioteca ""Biblio Pop""",41.776142,12.597585,Marino,Biblioteca,0,Lazio,Cultura e sapere
Biblioteca comunale di Ispra,45.8139411,8.6111784,Ispra,Biblioteca,0,Lombardia,Cultura e sapere
Biblioteca Comunale di Quinto di Treviso,45.6472457,12.165886,Quinto Di Treviso,Biblioteca,0,Veneto,Cultura e sapere
Biblioteca Comunale degli Ardenti,42.4208794,12.1077651,Viterbo,Biblioteca,0,Lazio,Cultura e sapere
Biblioteca di Castello,45.4369406,12.3457956,Venezia,Biblioteca,0,Veneto,Arte antica e medievale
Renato Turletti,45.0182557,7.7361452,Moncalieri,Biblioteca,0,Piemonte,Cultura e sapere
Biblioteca Tecnico-Scientifica-Biomedica,43.5871104,13.5154966,Ancona,Biblioteca,1,Marche,Scienze e natura
Biblioteca Civica,45.0100636,9.1261338,Casteggio,Biblioteca,0,Lombardia,Cultura e sapere
Biblioteca comunale Giovanni Verga,36.8271255,14.523087,Santa Croce Camerina,Biblioteca,1,Sicilia,Cultura e sapere
Biblioteca comunale,45.7593443,9.7949834,Albino,Biblioteca,0,Lombardia,Cultura e sapere
"Biblioteca Comunale ""Emidio Agostinone""",42.512875,14.1480403,Montesilvano,Biblioteca,1,Abruzzo,Cultura e sapere
Biblioteca Don Fabio Fattor,46.3952797,11.121074,Romeno,Biblioteca,0,Trentino-Alto Adige/Südtirol,Cultura e sapere
Biblioteca Trisi,44.4202183,11.9090327,Lugo,Biblioteca,1,Emilia-Romagna,Cultura e sapere
"Biblioteca Sovracomunale ""L.A.C""",46.1332336,11.2507344,Baselga Di Pinè,Biblioteca,1,Trentino-Alto Adige/Südtirol,Cultura e sapere
Biblioteca Comunale,45.6887366,9.4709065,Calusco D'Adda,Biblioteca,0,Lombardia,Cultura e sapere
Biblioteca Civica Gino Pieri,43.1793848,13.7936937,Porto San Giorgio,Biblioteca,0,Marche,Cultura e sapere
Biblioteca Servitana,44.3978077,8.9465657,Genova,Biblioteca,0,Liguria,Cultura e sapere
"Biblioteca Comunale ""Uliano Martini""",43.7637045,10.4431674,San Giuliano Terme,Biblioteca,0,Toscana,Cultura e sapere
Biblioteca Chiara Cataldi,43.5900798,10.4761746,Collesalvetti,Biblioteca,0,Toscana,Cultura e sapere
Biblioteca comunale Gianni Rodari,45.1452662,11.0307127,Villimpenta,Biblioteca,0,Lombardia,Cultura e sapere
Biblioteca comunale,45.3301999,7.6557841,Busano,Biblioteca,0,Piemonte,Cultura e sapere
Biblioteca Comunale di Montopoli,43.6691595,10.7530504,Montopoli In Val D'Arno,Biblioteca,0,Toscana,Cultura e sapere
Biblioteca di Orentano,43.778738,10.6623334,Castelfranco Di Sotto,Biblioteca,1,Toscana,Cultura e sapere
"Bibloteca di quartiere ""G.Caliari""",45.4136247,10.9942942,Verona,Biblioteca,0,Veneto,Cultura e sapere
Biblioteca Comunale Filippo Maria de Sanctis,41.5684554,13.332997,Ceccano,Biblioteca,0,Lazio,Cultura e sapere
Biblioteca Comunale di Castegnero,45.4432742,11.5861872,Castegnero,Biblioteca,0,Veneto,Cultura e sapere
Biblioteca Comunale di Forcoli,43.6030794,10.7067647,Palaia,Biblioteca,0,Toscana,Cultura e sapere
Biblioteca Comunale,43.1666156,11.7715357,Torrita Di Siena,Biblioteca,0,Toscana,Cultura e sapere
Biblioteca comunale,43.2067522,11.8035692,Sinalunga,Biblioteca,0,Toscana,Cultura e sapere
Biblioteca comunale E. Levi,43.3080853,10.5279577,Cecina,Biblioteca,0,Toscana,Cultura e sapere
Bibliothek Terlan,46.5287934,11.2496275,Terlano,Biblioteca,0,Trentino-Alto Adige/Südtirol,Cultura e sapere
Biblioteca Comunale,43.2987258,10.8737021,Pomarance,Biblioteca,0,Toscana,Cultura e sapere
Biblioteca comunale “Card. Giovanni Colombo”,43.3314005,11.7243074,Monte San Savino,Biblioteca,0,Toscana,Cultura e sapere
Biblioteca Comunale,43.2320938,11.421287,Monteroni D'Arbia,Biblioteca,0,Toscana,Cultura e sapere
Biblioteca civica,45.8187024,8.8232487,Varese,Biblioteca,1,Lombardia,Cultura e sapere
UNIUD Biblioteca Rizzi,46.0798194,13.2132117,Udine,Biblioteca,1,Friuli-Venezia Giulia,Cultura e sapere
Biblioteca comunale,45.4912513,10.2166782,San Zeno Naviglio,Biblioteca,0,Lombardia,Cultura e sapere
Mediateca Vincenzo Bellini,37.5048515,15.0856836,Catania,Biblioteca,0,Sicilia,Cultura e sapere
Biblioteca comunale Antonio Morvidi,42.6656253,11.5044109,Manciano,Biblioteca,0,Toscana,Cultura e sapere
Biblioteca Comunale Città di Spinea,45.4926329,12.1613611,Spinea,Biblioteca,0,Veneto,Cultura e sapere
Biblioteca comunale,44.2702439,11.3216286,Loiano,Biblioteca,0,Emilia-Romagna,Cultura e sapere
Biblioteca comunale di Gragnano,40.694157,14.5085028,Gragnano,Biblioteca,0,Campania,Cultura e sapere
Biblioteca Comunale Parco Sempione,45.4744502,9.175032,Milano,Biblioteca,0,Lombardia,Cultura e sapere
Emilio Salgari,45.1847219,7.7184306,Leini,Biblioteca,0,Piemonte,Cultura e sapere
"Biblioteca Comunale Multimediale “Barbara Rizzo, Giuseppe e Salvatore Asta” di Castellammare del Golfo",38.0243835,12.8818072,Castellammare Del Golfo,Biblioteca,0,Sicilia,Cultura e sapere
Biblioteca civica VIlla San Carlo,45.7831004,9.4154107,Valgreghentino,Biblioteca,0,Lombardia,Cultura e sapere
Biblioteca,45.8175864,10.954011,Brentonico,Biblioteca,0,Trentino-Alto Adige/Südtirol,Cultura e sapere
"Biblioteca ""L. Da Vinci""",40.6199948,14.9454107,Bellizzi,Biblioteca,0,Campania,Cultura e sapere
"Biblioteca parrocchiale ""Domus Deorum""",40.8301803,15.0686144,Bagnoli Irpino,Biblioteca,0,Campania,Archeologia
Biblioteca civica,45.5702919,8.1823255,Cossato,Biblioteca,0,Piemonte,Cultura e sapere
Biblioteca Comunale Marcello Braccagni,43.4230017,11.1283385,Colle Di Val D'Elsa,Biblioteca,0,Toscana,Cultura e sapere
Biblioteca civica,45.4764428,8.99386,Bareggio,Biblioteca,0,Lombardia,Cultura e sapere
Biblioteca Comunale di Selargius,39.2577479,9.1692854,Selargius,Biblioteca,0,Sardegna,Cultura e sapere
Fondazione Eni Enrico Mattei,45.4289582,12.344918,Venezia,Biblioteca,0,Veneto,Arte moderna e contemporanea
Biblioteca Comunale,42.9885508,11.8702067,Sarteano,Biblioteca,0,Toscana,Cultura e sapere
Millander Dorfbibliothek,46.7080271,11.6629831,Bressanone,Biblioteca,0,Trentino-Alto Adige/Südtirol,Cultura e sapere
Bilbliothek,46.5438536,11.2036701,Nalles,Biblioteca,0,Trentino-Alto Adige/Südtirol,Cultura e sapere
Aula Studio Rosà,45.7240697,11.7619773,Rosà,Biblioteca,0,Veneto,Cultura e sapere
Biblioteca Comunale Antonio Pigliaru,40.8348645,8.4014528,Porto Torres,Biblioteca,0,Sardegna,Cultura e sapere
Biblioteca comunale,42.4169106,11.8759816,Tuscania,Biblioteca,0,Lazio,Cultura e sapere
Biblioteca comunale,45.4383065,11.032498,Verona,Biblioteca,0,Veneto,Cultura e sapere
Biblioteca Panizzi,44.6965084,10.6292895,Reggio Nell'Emilia,Biblioteca,1,Emilia-Romagna,Cultura e sapere
Casa Fontana Rossi,46.0034106,8.328602,Premosello-Chiovenda,Biblioteca,0,Piemonte,Cultura e sapere
Biblioteca Civica,45.7183357,9.6067834,Valbrembo,Biblioteca,0,Lombardia,Cultura e sapere
Biblioteca Civica,45.5897375,8.1149625,Ternengo,Biblioteca,0,Piemonte,Cultura e sapere
Bibliothek Kaltern - Biblioteca di Caldaro,46.4115384,11.2455036,Caldaro Sulla Strada Del Vino,Biblioteca,0,Trentino-Alto Adige/Südtirol,Cultura e sapere
Biblioteca Comunale,39.843111,9.6445104,Bari Sardo,Biblioteca,0,Sardegna,Cultura e sapere
Biblioteca comunale di Solbiate Arno,45.7198077,8.8171877,Solbiate Arno,Biblioteca,0,Lombardia,Cultura e sapere
Biblioteca comunale di Sumirago,45.7407043,8.7811274,Sumirago,Biblioteca,0,Lombardia,Cultura e sapere
Biblioteca,45.6695838,9.7631752,Brusaporto,Biblioteca,0,Lombardia,Cultura e sapere
Biblioteca Universitaria Interdipartimentale,44.70193,10.6289046,Reggio Nell'Emilia,Biblioteca,0,Emilia-Romagna,Cultura e sapere
Biblioteca Civica di Borghetto SS,44.1092423,8.2415932,Borghetto Santo Spirito,Biblioteca,0,Liguria,Cultura e sapere
Biblioteca di Santa Croce,44.703961,10.6501801,Reggio Nell'Emilia,Biblioteca,0,Emilia-Romagna,Cultura e sapere
"Biblioteca Comunale ""Giovanni Colonna""",40.797181,16.7587806,Santeramo In Colle,Biblioteca,0,Puglia,Cultura e sapere
Biblioteca Comunale,39.5966957,16.5188404,Corigliano-Rossano,Biblioteca,0,Calabria,Cultura e sapere
Biblioteca Civica,45.5915326,8.1961326,Lessona,Biblioteca,0,Piemonte,Cultura e sapere
Biblioteca comunale,41.7776166,12.9162144,Valmontone,Biblioteca,0,Lazio,Cultura e sapere
Stadtbibliothek - Biblioteca Civica,46.6710138,11.1593781,Merano,Biblioteca,1,Trentino-Alto Adige/Südtirol,Cultura e sapere
EURAC Library,46.4945158,11.3462576,Bolzano,Biblioteca,0,Trentino-Alto Adige/Südtirol,Cultura e sapere
Centro Culturale Giuseppe Verdi,45.4908752,9.2929641,Segrate,Biblioteca,0,Lombardia,Cultura e sapere
"Biblioteca civica ""Giuseppe Bonisoli""",45.1772378,10.1662574,Vescovato,Biblioteca,1,Lombardia,Cultura e sapere
Biblioteca Comunale Paolo VI di Ospitaletto,45.5566236,10.0736564,Ospitaletto,Biblioteca,0,Lombardia,Cultura e sapere
Biblioteca Comunale di Cles,46.3648347,11.0363104,Cles,Biblioteca,0,Trentino-Alto Adige/Südtirol,Cultura e sapere
Biblioteca Natalia Ginzburg,44.4741257,11.3918442,Bologna,Biblioteca,0,Emilia-Romagna,Cultura e sapere
Biblioteca comunale,45.9732777,12.2322984,Tarzo,Biblioteca,0,Veneto,Cultura e sapere
Biblioteca Diocesana S. Domenico,42.3579714,14.4062109,Ortona,Biblioteca,0,Abruzzo,Cultura e sapere
Biblioteca civica Rinolfi Camana,45.6476508,8.3737621,Prato Sesia,Biblioteca,0,Piemonte,Cultura e sapere
Biblioteca comunale Francesca Sanna Sulis,39.2517133,9.1721068,Quartucciu,Biblioteca,0,Sardegna,Cultura e sapere
Biblioteca Comunale Salvatore Struppa,37.7998485,12.4343111,Marsala,Biblioteca,0,Sicilia,Cultura e sapere
Biblioteca comunale di Gargnano,45.6876213,10.6620277,Gargnano,Biblioteca,0,Lombardia,Cultura e sapere
"Biblioteca Comunale di Caprino Veronese  ""Giovanni Arduino""",45.6062449,10.7934933,Caprino Veronese,Biblioteca,0,Veneto,Cultura e sapere
Biblioteca di Pantigliate,45.435235,9.3514855,Mediglia,Biblioteca,0,Lombardia,Cultura e sapere
Dipartimento di Scienze Farmaceutiche,44.4957057,11.3535141,Bologna,Biblioteca,0,Emilia-Romagna,Cultura e sapere
Biblioteca Biomedica Centrale,44.5003826,11.3553523,Bologna,Biblioteca,1,Emilia-Romagna,Cultura e sapere
Biblioteca Comunale,45.6799805,10.0206561,Predore,Biblioteca,0,Lombardia,Cultura e sapere
Nuova Biblioteca Comunale,46.101369,12.1891767,Limana,Biblioteca,0,Veneto,Cultura e sapere
biblioteca di Rogno,45.8554314,10.133231,Rogno,Biblioteca,0,Lombardia,Cultura e sapere
Biblioteca Comunale Celestino Piva,45.9019437,11.9973884,Valdobbiadene,Biblioteca,0,Veneto,Cultura e sapere
Biblioteca Civica di Cittadella,45.6498697,11.7875501,Cittadella,Biblioteca,0,Veneto,Cultura e sapere
Biblioteca Civica,45.3462482,11.8686139,Albignasego,Biblioteca,1,Veneto,Cultura e sapere
Biblioteca del Seminario Vescovile,37.6514552,12.5899033,Mazara Del Vallo,Biblioteca,0,Sicilia,Cultura e sapere
Biblioteca F. Morlicchio,40.7493514,14.5238568,Scafati,Biblioteca,0,Campania,Cultura e sapere
Biblioteca comunale,42.1338977,12.7409585,Montelibretti,Biblioteca,0,Lazio,Cultura e sapere
Biblioteca di Madignano,45.3448844,9.7255069,Madignano,Biblioteca,0,Lombardia,Cultura e sapere
Biblioteca civica Alberto Geisser,45.0659875,7.7039114,Torino,Biblioteca,1,Piemonte,Cultura e sapere
Biblioteca Peppino Impastato,42.2674715,12.6863911,Poggio Mirteto,Biblioteca,0,Lazio,Cultura e sapere
Biblioteca comunale di Bregnano,45.6987571,9.0614382,Bregnano,Biblioteca,0,Lombardia,Cultura e sapere
Biblioteca comunale,45.7200233,9.0384395,Cadorago,Biblioteca,0,Lombardia,Cultura e sapere
Biblioteca comunale San Fermo della Battaglia,45.8084356,9.0416722,San Fermo Della Battaglia,Biblioteca,0,Lombardia,Cultura e sapere
Biblioteca Comunale,40.0225236,15.7782551,Trecchina,Biblioteca,0,Basilicata,Cultura e sapere
Biblioteca La Caletta,40.6072561,9.7462731,Siniscola,Biblioteca,1,Sardegna,Cultura e sapere
Biblioteca civica Giovanni Canna,45.1342742,8.4516043,Casale Monferrato,Biblioteca,0,Piemonte,Cultura e sapere
Libreria Montereggio,44.2967324,9.842789,Mulazzo,Biblioteca,0,Toscana,Cultura e sapere
Biblioteca Matilda,44.5724509,10.8504552,Formigine,Biblioteca,0,Emilia-Romagna,Cultura e sapere
Biblioteca Comunale,45.7160255,9.7055144,Torre Boldone,Biblioteca,1,Lombardia,Cultura e sapere
Biblioteca Valle di Ledro,45.8955893,10.7176067,Bezzecca,Biblioteca,0,Trentino-Alto Adige,Cultura e sapere
"Biblioteca ""R. Ruffilli""",44.2195505,12.0435677,Forlì,Biblioteca,1,Emilia-Romagna,Cultura e sapere
Bibblioteca Civica Albiate,45.6569124,9.2578528,Albiate,Biblioteca,0,Lombardia,Cultura e sapere
Biblioteca Enzo Biagi - Villa Corneliani,45.5740582,9.3526971,Agrate Brianza,Biblioteca,0,Lombardia,Cultura e sapere
Bibioteca Gaetano Squilla,41.9139046,13.4249828,Civitella Roveto,Biblioteca,0,Abruzzo,Cultura e sapere
Biblioteca civica,45.6667634,9.6287688,Lallio,Biblioteca,0,Lombardia,Cultura e sapere
Biblioteca Comunale di Ponte in Valtellina,46.1772005,9.9849245,Ponte In Valtellina,Biblioteca,0,Lombardia,Cultura e sapere
Biblioteca comunale,41.8153545,14.4856583,Schiavi Di Abruzzo,Biblioteca,0,Abruzzo,Cultura e sapere
"Biblioteca comunale ""Giovanni Gronchi""",43.6606679,10.6317014,Pontedera,Biblioteca,0,Toscana,Cultura e sapere
Narodna in študijska knjižnica / Biblioteca Nazionale Slovena e degli Studi,45.6532327,13.7792683,Trieste,Biblioteca,0,Friuli-Venezia Giulia,Cultura e sapere
Biblioteca Comunale di Lari,43.5654448,10.5922928,Casciana Terme Lari,Biblioteca,0,Toscana,Cultura e sapere
Biblioteca Nazionale di Cosenza,39.2883352,16.2616984,Cosenza,Biblioteca,0,Calabria,Cultura e sapere
"Biblioteca di Matematica, Informatica e Fisica dell'Università di Pisa",43.7205103,10.4075864,Pisa,Biblioteca,0,Toscana,Cultura e sapere
"Biblioteca per Ragazzi ""Emanuele Luzzati""",45.1375331,8.4460942,Casale Monferrato,Biblioteca,0,Piemonte,Cultura e sapere
Biblioteca comunale “J. R. R. Tolkien”,44.7286123,11.0382744,Bomporto,Biblioteca,0,Emilia-Romagna,Cultura e sapere
Biblioteca Comunale Il Quadrato,45.5262302,9.1154301,Baranzate,Biblioteca,0,Lombardia,Cultura e sapere
Biblioteca Civica d’Arte “Luigi Poletti”,44.6477585,10.9206221,Modena,Biblioteca,0,Emilia-Romagna,Cultura e sapere
Biblioteca Comunale Palomba,41.0541583,14.3316257,San Nicola La Strada,Biblioteca,0,Campania,Cultura e sapere
"Ludoteca Comunale ""Robinson Crusoe""",40.3851905,16.0404736,Corleto Perticara,Biblioteca,0,Basilicata,Cultura e sapere
Biblioteca Comunale,41.0372048,14.3852065,Maddaloni,Biblioteca,0,Campania,Cultura e sapere
Biblioteca del Lupo,45.5233745,7.7480644,Traversella,Biblioteca,0,Piemonte,Cultura e sapere
Aula studio Mattia Nicholas Liguori,41.9300306,12.4746248,Roma,Biblioteca,0,Lazio,Cultura e sapere
Biblioteca comunale Passerini-Landi,45.0525583,9.6960579,Piacenza,Biblioteca,0,Emilia-Romagna,Cultura e sapere
Biblioteca Comunale,40.8292249,14.8447287,Solofra,Biblioteca,0,Campania,Cultura e sapere
Biblioteca Comunale,45.5750824,8.5125681,Barengo,Biblioteca,0,Piemonte,Cultura e sapere
Biblioteca comunale Francesco Antonio Cappone,40.8572776,15.3340521,Conza Della Campania,Biblioteca,0,Campania,Cultura e sapere
Biblioteca di Arco,45.9204027,10.8889358,Arco,Biblioteca,0,Trentino-Alto Adige/Südtirol,Cultura e sapere
Biblioteca Comunale G.B. Borsieri,46.0886773,11.181846,Civezzano,Biblioteca,0,Trentino-Alto Adige/Südtirol,Cultura e sapere
Biblioteca Nazionale Braidense,45.4720978,9.1891088,Milano,Biblioteca,0,Lombardia,Cultura e sapere
Biblioteca Comunale Affori,45.5166084,9.1673769,Milano,Biblioteca,1,Lombardia,Cultura e sapere
Biblioteca comunale,38.695983,16.1441861,Sant'Onofrio,Biblioteca,0,Calabria,Cultura e sapere
Biblioteca Comunale Alberto Bertoni,45.6585055,9.1264218,Barlassina,Biblioteca,0,Lombardia,Cultura e sapere
Palazzo Caniglia,40.3212104,17.5738531,Maruggio,Biblioteca,0,Puglia,Arte antica e medievale
Biblioteca Pubblica di Gries - Öffentliche Bibliothek Gries,46.5041244,11.3347376,Bolzano,Biblioteca,0,Trentino-Alto Adige/Südtirol,Cultura e sapere
Biblioteca Comunale,40.5926517,8.5698976,Ittiri,Biblioteca,0,Sardegna,Cultura e sapere
"Biblioteca civica ""Cesare Battisti"" - Stadtbibliothek",46.4999175,11.3485064,Bolzano,Biblioteca,0,Trentino-Alto Adige/Südtirol,Cultura e sapere
Biblioteca Comunale,41.3209579,16.288855,Barletta,Biblioteca,1,Puglia,Cultura e sapere
Biblioteca Civica Falco Marin,45.6787921,13.3817265,Grado,Biblioteca,0,Friuli-Venezia Giulia,Cultura e sapere
Biblioteca Civica,44.7291271,7.5759058,Villanova Solaro,Biblioteca,0,Piemonte,Cultura e sapere
Biblioteca Comunale Fantoniana,41.8359361,12.891225,Palestrina,Biblioteca,0,Lazio,Cultura e sapere
"Biblioteca Comunale ""Aurelio Tognini""",46.1715177,9.7995326,Castione Andevenno,Biblioteca,0,Lombardia,Cultura e sapere
Biblioteca comunale 'Gianna e Carlo Schapira',45.6291438,8.8888298,Olgiate Olona,Biblioteca,0,Lombardia,Cultura e sapere
Biblioteca Comunale,45.870633,13.3626564,Aiello Del Friuli,Biblioteca,0,Friuli-Venezia Giulia,Cultura e sapere
Biblioteca Giacinto Ubaldo Lanfranchi,45.6000977,9.8834632,Palazzolo Sull'Oglio,Biblioteca,0,Lombardia,Cultura e sapere
Biblioteca di ingegneria Gian Paolo Dore,44.4877901,11.3288945,Bologna,Biblioteca,1,Emilia-Romagna,Cultura e sapere
Biblioteca comunale / Občinska knjižnica Nade Pertot,45.7499162,13.6732543,Duino Aurisina,Biblioteca,0,Friuli-Venezia Giulia,Cultura e sapere
Biblioteca comunale Gian Battista Roggia,45.6138225,8.8512593,Busto Arsizio,Biblioteca,1,Lombardia,Cultura e sapere
Stefano Tuccio,38.1557679,15.3819207,Monforte San Giorgio,Biblioteca,0,Sicilia,Cultura e sapere
Biblioteca Comunale di Oriago,45.452917,12.1735647,Mira,Biblioteca,0,Veneto,Cultura e sapere
Biblioteca Comunale di Cavedago,46.1832646,11.028131,Cavedago,Biblioteca,0,Trentino-Alto Adige/Südtirol,Cultura e sapere
Biblioteca Resana,45.6347779,11.9559348,Resana,Biblioteca,0,Veneto,Cultura e sapere
Biblioteca Comunale di Sestola,44.2316146,10.7714822,Sestola,Biblioteca,0,Emilia-Romagna,Cultura e sapere
Biblioteca Parrocchiale,40.650645,9.3301507,Alà Dei Sardi,Biblioteca,0,Sardegna,Cultura e sapere
Biblioteca civica,45.7179393,11.6081253,Colceresa,Biblioteca,0,Veneto,Cultura e sapere
Biblioteca Comunale,45.9370574,11.0958456,Calliano,Biblioteca,1,Trentino-Alto Adige/Südtirol,Cultura e sapere
Fondazione Giovanni Guarino Amella,37.3604113,13.8377571,Canicattì,Biblioteca,0,Sicilia,Arte moderna e contemporanea
Biblioteca galleggiante,45.4376319,12.378844,Venezia,Biblioteca,0,Veneto,Cultura e sapere
"Biblioteca Comunale di Caprezzo ""Luisa Castelnuovo",45.98052,8.5613137,Caprezzo,Biblioteca,0,Piemonte,Cultura e sapere
Biblioteca Campus Leonardo,45.4795274,9.2268098,Milano,Biblioteca,0,Lombardia,Cultura e sapere
Biblioteca Comunale,37.6436688,14.4025457,Leonforte,Biblioteca,0,Sicilia,Cultura e sapere
Biblioteca dei ragazzi e mediateca,39.2537287,9.1704065,Selargius,Biblioteca,0,Sardegna,Cultura e sapere
Biblioteca sportiva nazionale,41.9370124,12.4946787,Roma,Biblioteca,0,Lazio,Cultura e sapere
Biblioteca comunale Sperelliana,43.3488481,12.5812829,Gubbio,Biblioteca,0,Umbria,Cultura e sapere
Biblioteca comunale,44.5125434,11.8289281,Conselice,Biblioteca,0,Emilia-Romagna,Cultura e sapere
Biblioteca civica Villa Amoretti,45.0436949,7.6367766,Torino,Biblioteca,1,Piemonte,Cultura e sapere
Biblioteca Comunale,46.0622581,11.2395478,Pergine Valsugana,Biblioteca,0,Trentino-Alto Adige/Südtirol,Cultura e sapere
Plesso B,37.5595251,14.293968,Enna,Biblioteca,0,Sicilia,Cultura e sapere
Biblioteca Comunale di Trento,46.0698767,11.1206127,Trento,Biblioteca,1,Trentino-Alto Adige/Südtirol,Cultura e sapere
Biblioteca Comunale Pietro Mineo,37.6587843,14.5199351,Agira,Biblioteca,0,Sicilia,Cultura e sapere
Biblioteca Comunale Pietro Mineo,37.6588129,14.5199319,Agira,Biblioteca,0,Sicilia,Cultura e sapere
Biblioteca comunale Paolo Bellucci,44.0557862,10.7916105,San Marcello Piteglio,Biblioteca,0,Toscana,Cultura e sapere
Biblioteca comunale di Cuasso al Monte,45.8940401,8.8806153,Cuasso Al Monte,Biblioteca,0,Lombardia,Cultura e sapere
Biblioteca Comunale,37.6530894,12.5898179,Mazara Del Vallo,Biblioteca,0,Sicilia,Cultura e sapere
Officina culturale,41.2865988,13.9821068,Roccamonfina,Biblioteca,0,Campania,Cultura e sapere
Biblioteca Comunale,38.7856646,16.2891259,Filadelfia,Biblioteca,0,Calabria,Cultura e sapere
Biblioteca Comunale Raffaele Corso,38.5541528,15.9394128,Nicotera,Biblioteca,0,Calabria,Cultura e sapere
Biblioo,45.4453957,11.7186057,Veggiano,Biblioteca,0,Veneto,Cultura e sapere
Biblioteca comunale,38.0133796,12.7137666,Buseto Palizzolo,Biblioteca,0,Sicilia,Cultura e sapere
Biblioteca Comunale di Bruino,45.0212808,7.4713474,Bruino,Biblioteca,0,Piemonte,Cultura e sapere
Biblioteca comunale,45.3598417,9.2235036,Locate Di Triulzi,Biblioteca,0,Lombardia,Cultura e sapere
Museo del Mare e della Navigazione Antica,42.0165392,11.9582409,Santa Marinella,Biblioteca,0,Lazio,Cultura e sapere
"Biblioteca comunale ""Carlo Perrone""",41.0816928,16.7807407,Modugno,Biblioteca,0,Puglia,Cultura e sapere
Museo del Libro - Casa della Cultura (Palazzo Caputi),41.1162635,16.4847195,Ruvo Di Puglia,Biblioteca,0,Puglia,Arte antica e medievale
